{"type": "FeatureCollection","features": [{"type":"Feature","properties":{"addr":"8 Ave & W 31 St","id":"3255","use":"21142"},"geometry":{"type":"Point","coordinates":[-73.9946848154068,40.7505853470215]}},{"type":"Feature","properties":{"addr":"W 21 St & 6 Ave","id":"435","use":"21882"},"geometry":{"type":"Point","coordinates":[-73.99415556,40.74173969]}},{"type":"Feature","properties":{"addr":"West St & Chambers St","id":"426","use":"27664"},"geometry":{"type":"Point","coordinates":[-74.01322069,40.71754834]}},{"type":"Feature","properties":{"addr":"Carmine St & 6 Ave","id":"368","use":"18456"},"geometry":{"type":"Point","coordinates":[-74.00214988,40.73038599]}},{"type":"Feature","properties":{"addr":"E 17 St & Broadway","id":"497","use":"23694"},"geometry":{"type":"Point","coordinates":[-73.99009296,40.73704984]}},{"type":"Feature","properties":{"addr":"Grand Army Plaza & Central Park S","id":"281","use":"16157"},"geometry":{"type":"Point","coordinates":[-73.97371465,40.7643971]}},{"type":"Feature","properties":{"addr":"South End Ave & Liberty St","id":"3002","use":"17969"},"geometry":{"type":"Point","coordinates":[-74.015756,40.711512]}},{"type":"Feature","properties":{"addr":"Pershing Square North","id":"519","use":"32453"},"geometry":{"type":"Point","coordinates":[-73.977706,40.751873]}},{"type":"Feature","properties":{"addr":"Broadway & E 22 St","id":"402","use":"23394"},"geometry":{"type":"Point","coordinates":[-73.98955109,40.7403432]}},{"type":"Feature","properties":{"addr":"W 41 St & 8 Ave","id":"477","use":"17160"},"geometry":{"type":"Point","coordinates":[-73.9900262,40.75640548]}},{"type":"Feature","properties":{"addr":"8 Ave & W 33 St","id":"490","use":"19222"},"geometry":{"type":"Point","coordinates":[-73.993934,40.751551]}},{"type":"Feature","properties":{"addr":"W 20 St & 11 Ave","id":"459","use":"21666"},"geometry":{"type":"Point","coordinates":[-74.007756,40.746745]}},{"type":"Feature","properties":{"addr":"12 Ave & W 40 St","id":"514","use":"22573"},"geometry":{"type":"Point","coordinates":[-74.00277668,40.76087502]}}
]
}