{"type": "FeatureCollection","features": [{"type":"Feature","properties":{"addr":"W 43 St & 10 Ave","id":"515","use":"9386"},"geometry":{"type":"Point","coordinates":[-73.99461843,40.76009437]}},{"type":"Feature","properties":{"addr":"W 87 St  & Amsterdam Ave","id":"3285","use":"4038"},"geometry":{"type":"Point","coordinates":[-73.9747,40.78839]}},{"type":"Feature","properties":{"addr":"W 39 St & 9 Ave","id":"488","use":"4549"},"geometry":{"type":"Point","coordinates":[-73.99372222,40.75645824]}},{"type":"Feature","properties":{"addr":"E 15 St & 3 Ave","id":"297","use":"11870"},"geometry":{"type":"Point","coordinates":[-73.986923,40.734232]}},{"type":"Feature","properties":{"addr":"E 20 St & 2 Ave","id":"461","use":"11067"},"geometry":{"type":"Point","coordinates":[-73.98205027,40.73587678]}},{"type":"Feature","properties":{"addr":"Broadway & W 41 St","id":"465","use":"13467"},"geometry":{"type":"Point","coordinates":[-73.98658032,40.75513557]}},{"type":"Feature","properties":{"addr":"Catherine St & Monroe St","id":"2009","use":"3961"},"geometry":{"type":"Point","coordinates":[-73.99682619,40.71117444]}},{"type":"Feature","properties":{"addr":"E 33 St & 2 Ave","id":"527","use":"11168"},"geometry":{"type":"Point","coordinates":[-73.976056,40.744023]}},{"type":"Feature","properties":{"addr":"William St & Pine St","id":"360","use":"4613"},"geometry":{"type":"Point","coordinates":[-74.00887308,40.70717936]}},{"type":"Feature","properties":{"addr":"5 Ave & E 29 St","id":"474","use":"9637"},"geometry":{"type":"Point","coordinates":[-73.98683077,40.7451677]}},{"type":"Feature","properties":{"addr":"State St & Smith St","id":"310","use":"3418"},"geometry":{"type":"Point","coordinates":[-73.98912867,40.68926942]}},{"type":"Feature","properties":{"addr":"1 Pl & Clinton St","id":"3386","use":"1640"},"geometry":{"type":"Point","coordinates":[-73.99905709,40.6809591]}},{"type":"Feature","properties":{"addr":"Greenwich Ave & 8 Ave","id":"284","use":"16663"},"geometry":{"type":"Point","coordinates":[-74.0026376103,40.7390169121]}},{"type":"Feature","properties":{"addr":"8 Ave & W 31 St","id":"3255","use":"21142"},"geometry":{"type":"Point","coordinates":[-73.9946848154068,40.7505853470215]}},{"type":"Feature","properties":{"addr":"DeKalb Ave & Vanderbilt Ave","id":"258","use":"3218"},"geometry":{"type":"Point","coordinates":[-73.96885458,40.68940747]}},{"type":"Feature","properties":{"addr":"Clinton Ave & Myrtle Ave","id":"366","use":"4186"},"geometry":{"type":"Point","coordinates":[-73.968896,40.693261]}},{"type":"Feature","properties":{"addr":"E 13 St & Avenue A","id":"433","use":"8887"},"geometry":{"type":"Point","coordinates":[-73.98057249,40.72955361]}},{"type":"Feature","properties":{"addr":"Rivington St & Chrystie St","id":"473","use":"7137"},"geometry":{"type":"Point","coordinates":[-73.9919254,40.72110063]}},{"type":"Feature","properties":{"addr":"Murray St & West St","id":"309","use":"7606"},"geometry":{"type":"Point","coordinates":[-74.013012,40.7149787]}},{"type":"Feature","properties":{"addr":"E 31 St & 3 Ave","id":"476","use":"9040"},"geometry":{"type":"Point","coordinates":[-73.97966069,40.74394314]}},{"type":"Feature","properties":{"addr":"W 13 St & 7 Ave","id":"223","use":"6761"},"geometry":{"type":"Point","coordinates":[-73.99994661,40.73781509]}},{"type":"Feature","properties":{"addr":"E 16 St & 5 Ave","id":"496","use":"11935"},"geometry":{"type":"Point","coordinates":[-73.99238967,40.73726186]}},{"type":"Feature","properties":{"addr":"Grand St & Havemeyer St","id":"471","use":"3244"},"geometry":{"type":"Point","coordinates":[-73.95698119,40.71286844]}},{"type":"Feature","properties":{"addr":"Graham Ave & Conselyea St","id":"3086","use":"4397"},"geometry":{"type":"Point","coordinates":[-73.944507,40.715143]}},{"type":"Feature","properties":{"addr":"1 Ave & E 16 St","id":"504","use":"12954"},"geometry":{"type":"Point","coordinates":[-73.98165557,40.73221853]}},{"type":"Feature","properties":{"addr":"Allen St & Hester St","id":"361","use":"9069"},"geometry":{"type":"Point","coordinates":[-73.99190759,40.71605866]}},{"type":"Feature","properties":{"addr":"Riverside Dr & W 72 St","id":"3166","use":"6632"},"geometry":{"type":"Point","coordinates":[-73.98562431335449,40.78057799010334]}},{"type":"Feature","properties":{"addr":"W 74 St & Columbus Ave","id":"3172","use":"3269"},"geometry":{"type":"Point","coordinates":[-73.97754961,40.7785669]}},{"type":"Feature","properties":{"addr":"Pearl St & Hanover Square","id":"415","use":"5126"},"geometry":{"type":"Point","coordinates":[-74.00926027,40.7047177]}},{"type":"Feature","properties":{"addr":"Clinton St & Grand St","id":"350","use":"6143"},"geometry":{"type":"Point","coordinates":[-73.9870295,40.71559509]}},{"type":"Feature","properties":{"addr":"Commerce St & Van Brunt St","id":"3392","use":"861"},"geometry":{"type":"Point","coordinates":[-74.00860912,40.6812117]}},{"type":"Feature","properties":{"addr":"Carroll St & Smith St","id":"3382","use":"3408"},"geometry":{"type":"Point","coordinates":[-73.99475825,40.680611]}},{"type":"Feature","properties":{"addr":"Myrtle Ave & St Edwards St","id":"245","use":"1438"},"geometry":{"type":"Point","coordinates":[-73.97703874,40.69327018]}},{"type":"Feature","properties":{"addr":"E 55 St & 3 Ave","id":"3223","use":"8841"},"geometry":{"type":"Point","coordinates":[-73.96865397691727,40.758996559605116]}},{"type":"Feature","properties":{"addr":"E 39 St & 2 Ave","id":"518","use":"12507"},"geometry":{"type":"Point","coordinates":[-73.9734419,40.74780373]}},{"type":"Feature","properties":{"addr":"W 26 St & 10 Ave","id":"388","use":"9349"},"geometry":{"type":"Point","coordinates":[-74.002950346,40.749717753]}},{"type":"Feature","properties":{"addr":"5 Ave & E 78 St","id":"3143","use":"6083"},"geometry":{"type":"Point","coordinates":[-73.96427392959595,40.77632142182271]}},{"type":"Feature","properties":{"addr":"W 59 St & 10 Ave","id":"422","use":"5226"},"geometry":{"type":"Point","coordinates":[-73.988038,40.770513]}},{"type":"Feature","properties":{"addr":"W 49 St & 8 Ave","id":"450","use":"11039"},"geometry":{"type":"Point","coordinates":[-73.98788205,40.76227205]}},{"type":"Feature","properties":{"addr":"Broadway & E 14 St","id":"285","use":"16524"},"geometry":{"type":"Point","coordinates":[-73.99074142,40.73454567]}},{"type":"Feature","properties":{"addr":"W 21 St & 6 Ave","id":"435","use":"21882"},"geometry":{"type":"Point","coordinates":[-73.99415556,40.74173969]}},{"type":"Feature","properties":{"addr":"Lexington Ave & E 63 St","id":"3155","use":"5014"},"geometry":{"type":"Point","coordinates":[-73.96648977,40.76440023]}},{"type":"Feature","properties":{"addr":"E 52 St & 2 Ave","id":"441","use":"6236"},"geometry":{"type":"Point","coordinates":[-73.967416,40.756014]}},{"type":"Feature","properties":{"addr":"Centre St & Chambers St","id":"387","use":"14353"},"geometry":{"type":"Point","coordinates":[-74.0046073,40.71273266]}},{"type":"Feature","properties":{"addr":"West St & Chambers St","id":"426","use":"27664"},"geometry":{"type":"Point","coordinates":[-74.01322069,40.71754834]}},{"type":"Feature","properties":{"addr":"Greenwich Ave & Charles St","id":"383","use":"10434"},"geometry":{"type":"Point","coordinates":[-74.000271,40.735238]}},{"type":"Feature","properties":{"addr":"Grand St & Elizabeth St","id":"3435","use":"12848"},"geometry":{"type":"Point","coordinates":[-73.99596,40.718822]}},{"type":"Feature","properties":{"addr":"W Broadway & Spring St","id":"348","use":"10962"},"geometry":{"type":"Point","coordinates":[-74.00154702,40.72490985]}},{"type":"Feature","properties":{"addr":"W 11 St & 6 Ave","id":"254","use":"5983"},"geometry":{"type":"Point","coordinates":[-73.99800419,40.73532427]}},{"type":"Feature","properties":{"addr":"W 78 St & Broadway","id":"3162","use":"4113"},"geometry":{"type":"Point","coordinates":[-73.98093133,40.78339981]}},{"type":"Feature","properties":{"addr":"E 91 St & 2 Ave","id":"3305","use":"4627"},"geometry":{"type":"Point","coordinates":[-73.94965589046478,40.78112229934166]}},{"type":"Feature","properties":{"addr":"Lexington Ave & E 29 St","id":"540","use":"9588"},"geometry":{"type":"Point","coordinates":[-73.98215353488922,40.74311555376486]}},{"type":"Feature","properties":{"addr":"2 Ave & E 31 St","id":"528","use":"8756"},"geometry":{"type":"Point","coordinates":[-73.97706058,40.74290902]}},{"type":"Feature","properties":{"addr":"E 24 St & Park Ave S","id":"491","use":"11140"},"geometry":{"type":"Point","coordinates":[-73.98602213,40.74096374]}},{"type":"Feature","properties":{"addr":"Allen St & Stanton St","id":"312","use":"10557"},"geometry":{"type":"Point","coordinates":[-73.989111,40.722055]}},{"type":"Feature","properties":{"addr":"Christopher St & Greenwich St","id":"358","use":"15808"},"geometry":{"type":"Point","coordinates":[-74.00711384,40.73291553]}},{"type":"Feature","properties":{"addr":"Carmine St & 6 Ave","id":"368","use":"18456"},"geometry":{"type":"Point","coordinates":[-74.00214988,40.73038599]}},{"type":"Feature","properties":{"addr":"Perry St & Bleecker St","id":"247","use":"6817"},"geometry":{"type":"Point","coordinates":[-74.00483091,40.73535398]}},{"type":"Feature","properties":{"addr":"E 10 St & Avenue A","id":"445","use":"11597"},"geometry":{"type":"Point","coordinates":[-73.98142006,40.72740794]}},{"type":"Feature","properties":{"addr":"E 53 St & 3 Ave","id":"3459","use":"4892"},"geometry":{"type":"Point","coordinates":[-73.96930575370789,40.75763227739443]}},{"type":"Feature","properties":{"addr":"Frost St & Meeker St","id":"3091","use":"1307"},"geometry":{"type":"Point","coordinates":[-73.94882,40.71764]}},{"type":"Feature","properties":{"addr":"Broadway & Whipple St","id":"3067","use":"1587"},"geometry":{"type":"Point","coordinates":[-73.9437303,40.7016657]}},{"type":"Feature","properties":{"addr":"1 Ave & E 68 St","id":"3141","use":"11683"},"geometry":{"type":"Point","coordinates":[-73.95818491,40.76500525]}},{"type":"Feature","properties":{"addr":"E 85 St & 3 Ave","id":"3147","use":"4993"},"geometry":{"type":"Point","coordinates":[-73.95407149,40.77801203]}},{"type":"Feature","properties":{"addr":"Congress St & Clinton St","id":"3408","use":"2595"},"geometry":{"type":"Point","coordinates":[-73.99520919,40.6881529]}},{"type":"Feature","properties":{"addr":"12 St & 4 Ave","id":"3322","use":"1080"},"geometry":{"type":"Point","coordinates":[-73.9904394,40.668603]}},{"type":"Feature","properties":{"addr":"W 13 St & Hudson St","id":"3224","use":"13965"},"geometry":{"type":"Point","coordinates":[-74.00513872504234,40.73997354103409]}},{"type":"Feature","properties":{"addr":"W 15 St & 7 Ave","id":"482","use":"11058"},"geometry":{"type":"Point","coordinates":[-73.99931783,40.73935542]}},{"type":"Feature","properties":{"addr":"Fulton St & Broadway","id":"319","use":"7368"},"geometry":{"type":"Point","coordinates":[-74.009447,40.711066]}},{"type":"Feature","properties":{"addr":"Washington Pl & Broadway","id":"335","use":"6871"},"geometry":{"type":"Point","coordinates":[-73.99404649,40.72903917]}},{"type":"Feature","properties":{"addr":"8 Ave & W 16 St","id":"3428","use":"12823"},"geometry":{"type":"Point","coordinates":[-74.001702,40.740983]}},{"type":"Feature","properties":{"addr":"9 Ave & W 45 St","id":"479","use":"11987"},"geometry":{"type":"Point","coordinates":[-73.9912551,40.76019252]}},{"type":"Feature","properties":{"addr":"E 17 St & Broadway","id":"497","use":"23694"},"geometry":{"type":"Point","coordinates":[-73.99009296,40.73704984]}},{"type":"Feature","properties":{"addr":"E 35 St & 3 Ave","id":"3431","use":"5849"},"geometry":{"type":"Point","coordinates":[-73.977885,40.746524]}},{"type":"Feature","properties":{"addr":"Cooper Square & E 7 St","id":"3263","use":"15442"},"geometry":{"type":"Point","coordinates":[-73.99086803197861,40.72923649910006]}},{"type":"Feature","properties":{"addr":"MacDougal St & Prince St","id":"128","use":"15075"},"geometry":{"type":"Point","coordinates":[-74.00297088,40.72710258]}},{"type":"Feature","properties":{"addr":"W 20 St & 8 Ave","id":"470","use":"8005"},"geometry":{"type":"Point","coordinates":[-74.00004031,40.74345335]}},{"type":"Feature","properties":{"addr":"Graham Ave & Herbert St","id":"3095","use":"1246"},"geometry":{"type":"Point","coordinates":[-73.94500379,40.71929301]}},{"type":"Feature","properties":{"addr":"Broadway & W 60 St","id":"499","use":"13874"},"geometry":{"type":"Point","coordinates":[-73.98191841,40.76915505]}},{"type":"Feature","properties":{"addr":"Grand Army Plaza & Central Park S","id":"281","use":"16157"},"geometry":{"type":"Point","coordinates":[-73.97371465,40.7643971]}},{"type":"Feature","properties":{"addr":"E 7 St & Avenue A","id":"432","use":"14821"},"geometry":{"type":"Point","coordinates":[-73.98379855,40.72621788]}},{"type":"Feature","properties":{"addr":"E 23 St & 1 Ave","id":"545","use":"10742"},"geometry":{"type":"Point","coordinates":[-73.97809472,40.736502]}},{"type":"Feature","properties":{"addr":"W 52 St & 6 Ave","id":"3443","use":"13173"},"geometry":{"type":"Point","coordinates":[-73.97982001304626,40.76132983124814]}},{"type":"Feature","properties":{"addr":"E 14 St & Avenue B","id":"511","use":"10408"},"geometry":{"type":"Point","coordinates":[-73.97772429,40.72938685]}},{"type":"Feature","properties":{"addr":"Duane St & Greenwich St","id":"276","use":"5144"},"geometry":{"type":"Point","coordinates":[-74.0104554,40.71748752]}},{"type":"Feature","properties":{"addr":"11 Ave & W 59 St","id":"530","use":"9494"},"geometry":{"type":"Point","coordinates":[-73.990541,40.771522]}},{"type":"Feature","properties":{"addr":"Stanton St & Chrystie St","id":"265","use":"9728"},"geometry":{"type":"Point","coordinates":[-73.99147535,40.72229346]}},{"type":"Feature","properties":{"addr":"E 11 St & 2 Ave","id":"237","use":"11297"},"geometry":{"type":"Point","coordinates":[-73.98672378,40.73047309]}},{"type":"Feature","properties":{"addr":"9 Ave & W 28 St","id":"3259","use":"7629"},"geometry":{"type":"Point","coordinates":[-73.99923384189606,40.74937024193277]}},{"type":"Feature","properties":{"addr":"E 12 St & 3 Ave","id":"483","use":"10828"},"geometry":{"type":"Point","coordinates":[-73.98889957,40.73223272]}},{"type":"Feature","properties":{"addr":"W 22 St & 8 Ave","id":"453","use":"11401"},"geometry":{"type":"Point","coordinates":[-73.99915362,40.74475148]}},{"type":"Feature","properties":{"addr":"South End Ave & Liberty St","id":"3002","use":"17969"},"geometry":{"type":"Point","coordinates":[-74.015756,40.711512]}},{"type":"Feature","properties":{"addr":"Pershing Square North","id":"519","use":"32453"},"geometry":{"type":"Point","coordinates":[-73.977706,40.751873]}},{"type":"Feature","properties":{"addr":"W 33 St & 7 Ave","id":"492","use":"14153"},"geometry":{"type":"Point","coordinates":[-73.99093085,40.75019995]}},{"type":"Feature","properties":{"addr":"Bedford Ave & Nassau Ave","id":"3107","use":"5735"},"geometry":{"type":"Point","coordinates":[-73.95212324,40.72311651]}},{"type":"Feature","properties":{"addr":"Carlton Ave & Park Ave","id":"419","use":"1496"},"geometry":{"type":"Point","coordinates":[-73.97355569,40.69580705]}},{"type":"Feature","properties":{"addr":"Broadway & E 22 St","id":"402","use":"23394"},"geometry":{"type":"Point","coordinates":[-73.98955109,40.7403432]}},{"type":"Feature","properties":{"addr":"E 11 St & Broadway","id":"357","use":"6102"},"geometry":{"type":"Point","coordinates":[-73.99158043,40.73261787]}},{"type":"Feature","properties":{"addr":"W 20 St & 7 Ave","id":"334","use":"10695"},"geometry":{"type":"Point","coordinates":[-73.99726235,40.74238787]}},{"type":"Feature","properties":{"addr":"W 54 St & 9 Ave","id":"423","use":"5844"},"geometry":{"type":"Point","coordinates":[-73.98690506,40.76584941]}},{"type":"Feature","properties":{"addr":"E 84 St & Park Ave","id":"3145","use":"4060"},"geometry":{"type":"Point","coordinates":[-73.95772073,40.77862688]}},{"type":"Feature","properties":{"addr":"S 4 St & Wythe Ave","id":"460","use":"6349"},"geometry":{"type":"Point","coordinates":[-73.96590294,40.71285887]}},{"type":"Feature","properties":{"addr":"Putnam Ave & Throop Ave","id":"3050","use":"1107"},"geometry":{"type":"Point","coordinates":[-73.94111,40.6851532]}},{"type":"Feature","properties":{"addr":"Little West St & 1 Pl","id":"2008","use":"12841"},"geometry":{"type":"Point","coordinates":[-74.01677685,40.70569254]}},{"type":"Feature","properties":{"addr":"Clinton Ave & Flushing Ave","id":"343","use":"3106"},"geometry":{"type":"Point","coordinates":[-73.96986848,40.69794]}},{"type":"Feature","properties":{"addr":"Macon St & Nostrand Ave","id":"437","use":"3275"},"geometry":{"type":"Point","coordinates":[-73.9500479759,40.6809833854]}},{"type":"Feature","properties":{"addr":"Union Ave & N 12 St","id":"3096","use":"4001"},"geometry":{"type":"Point","coordinates":[-73.95242,40.71924]}},{"type":"Feature","properties":{"addr":"Nassau Ave & Newell St","id":"3100","use":"2673"},"geometry":{"type":"Point","coordinates":[-73.94752621650696,40.724812564400175]}},{"type":"Feature","properties":{"addr":"Broadway & Berry St","id":"389","use":"4409"},"geometry":{"type":"Point","coordinates":[-73.96525063,40.71044554]}},{"type":"Feature","properties":{"addr":"Broadway & Roebling St","id":"3078","use":"3180"},"geometry":{"type":"Point","coordinates":[-73.96063148975372,40.70924826276157]}},{"type":"Feature","properties":{"addr":"E 81 St & 3 Ave","id":"3146","use":"3739"},"geometry":{"type":"Point","coordinates":[-73.9567526,40.77573034]}},{"type":"Feature","properties":{"addr":"Metropolitan Ave & Bedford Ave","id":"539","use":"8420"},"geometry":{"type":"Point","coordinates":[-73.96024116,40.71534825]}},{"type":"Feature","properties":{"addr":"Amsterdam Ave & W 82 St","id":"3171","use":"6241"},"geometry":{"type":"Point","coordinates":[-73.97667321,40.78524672]}},{"type":"Feature","properties":{"addr":"W 70 St & Amsterdam Ave","id":"3175","use":"6955"},"geometry":{"type":"Point","coordinates":[-73.98288594,40.77748046]}},{"type":"Feature","properties":{"addr":"W 42 St & 8 Ave","id":"529","use":"9513"},"geometry":{"type":"Point","coordinates":[-73.99098507,40.7575699]}},{"type":"Feature","properties":{"addr":"Douglass St & 4 Ave","id":"3419","use":"2264"},"geometry":{"type":"Point","coordinates":[-73.98154004,40.6792788]}},{"type":"Feature","properties":{"addr":"Kingston Ave & Herkimer St","id":"3041","use":"1000"},"geometry":{"type":"Point","coordinates":[-73.94142771,40.67890679]}},{"type":"Feature","properties":{"addr":"E 85 St & York Ave","id":"3150","use":"3724"},"geometry":{"type":"Point","coordinates":[-73.94803392,40.77536905]}},{"type":"Feature","properties":{"addr":"Willoughby Ave & Tompkins Ave","id":"3060","use":"937"},"geometry":{"type":"Point","coordinates":[-73.94626915,40.69425403]}},{"type":"Feature","properties":{"addr":"Myrtle Ave & Lewis Ave","id":"3064","use":"2778"},"geometry":{"type":"Point","coordinates":[-73.93756926,40.69681963]}},{"type":"Feature","properties":{"addr":"E 103 St & Lexington Ave","id":"3379","use":"1574"},"geometry":{"type":"Point","coordinates":[-73.94755757,40.7903051]}},{"type":"Feature","properties":{"addr":"3 Ave & E 100 St","id":"3327","use":"574"},"geometry":{"type":"Point","coordinates":[-73.94728331,40.7877214]}},{"type":"Feature","properties":{"addr":"St Marks Pl & 2 Ave","id":"236","use":"10780"},"geometry":{"type":"Point","coordinates":[-73.98713956,40.7284186]}},{"type":"Feature","properties":{"addr":"E 47 St & 2 Ave","id":"164","use":"6453"},"geometry":{"type":"Point","coordinates":[-73.97032517,40.75323098]}},{"type":"Feature","properties":{"addr":"Broadway & W 32 St","id":"498","use":"10837"},"geometry":{"type":"Point","coordinates":[-73.98808416,40.74854862]}},{"type":"Feature","properties":{"addr":"MacDougal St & Washington Sq","id":"252","use":"7479"},"geometry":{"type":"Point","coordinates":[-73.99852205,40.73226398]}},{"type":"Feature","properties":{"addr":"Avenue D & E 8 St","id":"266","use":"2945"},"geometry":{"type":"Point","coordinates":[-73.97574813,40.72368361]}},{"type":"Feature","properties":{"addr":"6 Ave & W 33 St","id":"505","use":"14984"},"geometry":{"type":"Point","coordinates":[-73.98848395,40.74901271]}},{"type":"Feature","properties":{"addr":"DeKalb Ave & Hudson Ave","id":"324","use":"5412"},"geometry":{"type":"Point","coordinates":[-73.981013,40.689888]}},{"type":"Feature","properties":{"addr":"Lafayette Ave & St James Pl","id":"399","use":"2419"},"geometry":{"type":"Point","coordinates":[-73.9647628,40.68851534]}},{"type":"Feature","properties":{"addr":"W 4 St & 7 Ave S","id":"380","use":"10289"},"geometry":{"type":"Point","coordinates":[-74.00293877,40.73401143]}},{"type":"Feature","properties":{"addr":"St James Pl & Oliver St","id":"308","use":"4326"},"geometry":{"type":"Point","coordinates":[-73.99851193,40.71307916]}},{"type":"Feature","properties":{"addr":"11 Ave & W 41 St","id":"478","use":"10180"},"geometry":{"type":"Point","coordinates":[-73.99884222,40.76030096]}},{"type":"Feature","properties":{"addr":"E 51 St & Lexington Ave","id":"522","use":"6468"},"geometry":{"type":"Point","coordinates":[-73.97207836,40.75714758]}},{"type":"Feature","properties":{"addr":"Sullivan St & Washington Sq","id":"336","use":"8970"},"geometry":{"type":"Point","coordinates":[-73.99906065,40.73047747]}},{"type":"Feature","properties":{"addr":"W 52 St & 11 Ave","id":"72","use":"8249"},"geometry":{"type":"Point","coordinates":[-73.99392888,40.76727216]}},{"type":"Feature","properties":{"addr":"Marcy Ave & Lafayette Ave","id":"3053","use":"709"},"geometry":{"type":"Point","coordinates":[-73.947915,40.6900815]}},{"type":"Feature","properties":{"addr":"Greene Ave & Throop Ave","id":"3054","use":"1181"},"geometry":{"type":"Point","coordinates":[-73.942061,40.6894932]}},{"type":"Feature","properties":{"addr":"Henry St & Grand St","id":"502","use":"6417"},"geometry":{"type":"Point","coordinates":[-73.981346,40.714215]}},{"type":"Feature","properties":{"addr":"FDR Drive & E 35 St","id":"501","use":"9759"},"geometry":{"type":"Point","coordinates":[-73.97121214,40.744219]}},{"type":"Feature","properties":{"addr":"Pier 40 - Hudson River Park","id":"3256","use":"12621"},"geometry":{"type":"Point","coordinates":[-74.01129573583603,40.7277140777778]}},{"type":"Feature","properties":{"addr":"E 25 St & 1 Ave","id":"174","use":"6537"},"geometry":{"type":"Point","coordinates":[-73.97738662,40.7381765]}},{"type":"Feature","properties":{"addr":"48 Ave & 5 St","id":"3122","use":"1684"},"geometry":{"type":"Point","coordinates":[-73.9558732509613,40.744363287066875]}},{"type":"Feature","properties":{"addr":"Huron St & Franklin St","id":"3116","use":"3466"},"geometry":{"type":"Point","coordinates":[-73.95826,40.73266]}},{"type":"Feature","properties":{"addr":"W 41 St & 8 Ave","id":"477","use":"17160"},"geometry":{"type":"Point","coordinates":[-73.9900262,40.75640548]}},{"type":"Feature","properties":{"addr":"8 Ave & W 52 St","id":"447","use":"8959"},"geometry":{"type":"Point","coordinates":[-73.9851615,40.76370739]}},{"type":"Feature","properties":{"addr":"S 5 Pl & S 4 St","id":"532","use":"8311"},"geometry":{"type":"Point","coordinates":[-73.960876,40.710451]}},{"type":"Feature","properties":{"addr":"Dean St & 4 Ave","id":"467","use":"4418"},"geometry":{"type":"Point","coordinates":[-73.97895137,40.68312489]}},{"type":"Feature","properties":{"addr":"Douglass St & 3 Ave","id":"3420","use":"2042"},"geometry":{"type":"Point","coordinates":[-73.98432695,40.6802133]}},{"type":"Feature","properties":{"addr":"Allen St & Rivington St","id":"401","use":"10997"},"geometry":{"type":"Point","coordinates":[-73.98997825,40.72019576]}},{"type":"Feature","properties":{"addr":"Broadway & W 29 St","id":"486","use":"11720"},"geometry":{"type":"Point","coordinates":[-73.98855723,40.7462009]}},{"type":"Feature","properties":{"addr":"Dean St & Hoyt St","id":"3410","use":"1825"},"geometry":{"type":"Point","coordinates":[-73.98759104,40.6864442]}},{"type":"Feature","properties":{"addr":"Forsyth St & Canal St","id":"412","use":"8240"},"geometry":{"type":"Point","coordinates":[-73.99422366,40.7158155]}},{"type":"Feature","properties":{"addr":"7 Ave & Park Pl","id":"3416","use":"4049"},"geometry":{"type":"Point","coordinates":[-73.97324283,40.6776147]}},{"type":"Feature","properties":{"addr":"Garfield Pl & 8 Ave","id":"3358","use":"1978"},"geometry":{"type":"Point","coordinates":[-73.97484126,40.6711978]}},{"type":"Feature","properties":{"addr":"Amsterdam Ave & W 79 St","id":"3360","use":"5455"},"geometry":{"type":"Point","coordinates":[-73.9786517,40.7829391]}},{"type":"Feature","properties":{"addr":"Amsterdam Ave & W 73 St","id":"3167","use":"9158"},"geometry":{"type":"Point","coordinates":[-73.98093044757842,40.77966809007312]}},{"type":"Feature","properties":{"addr":"21 St & 43 Ave","id":"3128","use":"756"},"geometry":{"type":"Point","coordinates":[-73.94594845,40.75052534]}},{"type":"Feature","properties":{"addr":"E 20 St & FDR Drive","id":"487","use":"8586"},"geometry":{"type":"Point","coordinates":[-73.97573881,40.73314259]}},{"type":"Feature","properties":{"addr":"Harrison St & Hudson St","id":"249","use":"4319"},"geometry":{"type":"Point","coordinates":[-74.0090009,40.71870987]}},{"type":"Feature","properties":{"addr":"Mott St & Prince St","id":"251","use":"10591"},"geometry":{"type":"Point","coordinates":[-73.99480012,40.72317958]}},{"type":"Feature","properties":{"addr":"Norfolk St & Broome St","id":"311","use":"5832"},"geometry":{"type":"Point","coordinates":[-73.98802084,40.7172274]}},{"type":"Feature","properties":{"addr":"W 27 St & 7 Ave","id":"442","use":"13148"},"geometry":{"type":"Point","coordinates":[-73.993915,40.746647]}},{"type":"Feature","properties":{"addr":"W 27 St & 10 Ave","id":"3258","use":"9388"},"geometry":{"type":"Point","coordinates":[-74.00218427181244,40.75018156325683]}},{"type":"Feature","properties":{"addr":"Broadway & W 36 St","id":"267","use":"9838"},"geometry":{"type":"Point","coordinates":[-73.98765428,40.75097711]}},{"type":"Feature","properties":{"addr":"Boerum St & Broadway","id":"3071","use":"1295"},"geometry":{"type":"Point","coordinates":[-73.94976519,40.70538077]}},{"type":"Feature","properties":{"addr":"Greene Ave & Nostrand Ave","id":"3055","use":"1168"},"geometry":{"type":"Point","coordinates":[-73.950916,40.6883337]}},{"type":"Feature","properties":{"addr":"Prospect Pl & 6 Ave","id":"3415","use":"2072"},"geometry":{"type":"Point","coordinates":[-73.97519523,40.6793307]}},{"type":"Feature","properties":{"addr":"Milton St & Franklin St","id":"3112","use":"6773"},"geometry":{"type":"Point","coordinates":[-73.95779,40.72906]}},{"type":"Feature","properties":{"addr":"University Pl & E 8 St","id":"3244","use":"7111"},"geometry":{"type":"Point","coordinates":[-73.99490341544151,40.73143724085228]}},{"type":"Feature","properties":{"addr":"Lafayette St & E 8 St","id":"293","use":"15456"},"geometry":{"type":"Point","coordinates":[-73.99102628231049,40.73020660529954]}},{"type":"Feature","properties":{"addr":"11 Ave & W 27 St","id":"458","use":"13059"},"geometry":{"type":"Point","coordinates":[-74.005226,40.751396]}},{"type":"Feature","properties":{"addr":"Riverside Dr & W 82 St","id":"3169","use":"4368"},"geometry":{"type":"Point","coordinates":[-73.98128127,40.78720869]}},{"type":"Feature","properties":{"addr":"1 Ave & E 30 St","id":"536","use":"9107"},"geometry":{"type":"Point","coordinates":[-73.97536082,40.74144387]}},{"type":"Feature","properties":{"addr":"Division Ave & Hooper St","id":"3073","use":"1312"},"geometry":{"type":"Point","coordinates":[-73.95441667,40.70691254]}},{"type":"Feature","properties":{"addr":"Halsey St & Tompkins Ave","id":"3047","use":"1931"},"geometry":{"type":"Point","coordinates":[-73.944118,40.6823687]}},{"type":"Feature","properties":{"addr":"John St & William St","id":"376","use":"4664"},"geometry":{"type":"Point","coordinates":[-74.00722156,40.70862144]}},{"type":"Feature","properties":{"addr":"W 17 St & 8 Ave","id":"116","use":"9593"},"geometry":{"type":"Point","coordinates":[-74.00149746,40.74177603]}},{"type":"Feature","properties":{"addr":"Monroe St & Bedford Ave","id":"344","use":"1913"},"geometry":{"type":"Point","coordinates":[-73.95380904,40.6851443]}},{"type":"Feature","properties":{"addr":"Jackson St & Leonard St","id":"3456","use":"526"},"geometry":{"type":"Point","coordinates":[-73.94821286201477,40.71638031973561]}},{"type":"Feature","properties":{"addr":"Lafayette Ave & Fort Greene Pl","id":"274","use":"3505"},"geometry":{"type":"Point","coordinates":[-73.976682,40.68691865]}},{"type":"Feature","properties":{"addr":"Great Jones St","id":"229","use":"15181"},"geometry":{"type":"Point","coordinates":[-73.99379025,40.72743423]}},{"type":"Feature","properties":{"addr":"Bialystoker Pl & Delancey St","id":"356","use":"3844"},"geometry":{"type":"Point","coordinates":[-73.98261206,40.71622644]}},{"type":"Feature","properties":{"addr":"W 106 St & Central Park West","id":"3323","use":"5041"},"geometry":{"type":"Point","coordinates":[-73.9605909006,40.7981856]}},{"type":"Feature","properties":{"addr":"Bank St & Hudson St","id":"346","use":"8361"},"geometry":{"type":"Point","coordinates":[-74.00618026,40.73652889]}},{"type":"Feature","properties":{"addr":"E 33 St & 5 Ave","id":"526","use":"9573"},"geometry":{"type":"Point","coordinates":[-73.98490707,40.74765947]}},{"type":"Feature","properties":{"addr":"W 53 St & 10 Ave","id":"480","use":"7484"},"geometry":{"type":"Point","coordinates":[-73.99061728,40.76669671]}},{"type":"Feature","properties":{"addr":"8 Ave & W 33 St","id":"490","use":"19222"},"geometry":{"type":"Point","coordinates":[-73.993934,40.751551]}},{"type":"Feature","properties":{"addr":"W 47 St & 10 Ave","id":"495","use":"8266"},"geometry":{"type":"Point","coordinates":[-73.99301222,40.76269882]}},{"type":"Feature","properties":{"addr":"Warren St & Church St","id":"152","use":"5552"},"geometry":{"type":"Point","coordinates":[-74.00910627,40.71473993]}},{"type":"Feature","properties":{"addr":"Central Park West & W 72 St","id":"3165","use":"11305"},"geometry":{"type":"Point","coordinates":[-73.9762057363987,40.77579376683666]}},{"type":"Feature","properties":{"addr":"W 22 St & 10 Ave","id":"462","use":"12402"},"geometry":{"type":"Point","coordinates":[-74.00451887,40.74691959]}},{"type":"Feature","properties":{"addr":"W 104 St & Amsterdam Ave","id":"3316","use":"1889"},"geometry":{"type":"Point","coordinates":[-73.9662173778,40.7989937]}},{"type":"Feature","properties":{"addr":"W 107 St & Columbus Ave","id":"3343","use":"1735"},"geometry":{"type":"Point","coordinates":[-73.9621128676,40.7997568]}},{"type":"Feature","properties":{"addr":"Devoe St & Lorimer St","id":"3453","use":"2686"},"geometry":{"type":"Point","coordinates":[-73.9491033554077,40.71335226222875]}},{"type":"Feature","properties":{"addr":"2 Ave & E 96 St","id":"3318","use":"4020"},"geometry":{"type":"Point","coordinates":[-73.9471673,40.7839636]}},{"type":"Feature","properties":{"addr":"6 Ave & Canal St","id":"377","use":"9934"},"geometry":{"type":"Point","coordinates":[-74.00566443,40.72243797]}},{"type":"Feature","properties":{"addr":"Broadway & W 49 St","id":"173","use":"11911"},"geometry":{"type":"Point","coordinates":[-73.9845272898674,40.76068327096592]}},{"type":"Feature","properties":{"addr":"Stagg St & Union Ave","id":"3077","use":"3075"},"geometry":{"type":"Point","coordinates":[-73.95095259,40.70877084]}},{"type":"Feature","properties":{"addr":"Willoughby Ave & Hall St","id":"244","use":"2718"},"geometry":{"type":"Point","coordinates":[-73.96536851,40.69196035]}},{"type":"Feature","properties":{"addr":"Hoyt St & Warren St","id":"3421","use":"917"},"geometry":{"type":"Point","coordinates":[-73.98901629,40.6843549]}},{"type":"Feature","properties":{"addr":"W 89 St & Columbus Ave","id":"3283","use":"3407"},"geometry":{"type":"Point","coordinates":[-73.97041561,40.7882213]}},{"type":"Feature","properties":{"addr":"Center Blvd & Borden Ave","id":"3120","use":"1670"},"geometry":{"type":"Point","coordinates":[-73.96044,40.74161]}},{"type":"Feature","properties":{"addr":"Vernon Blvd & 50 Ave","id":"3119","use":"5554"},"geometry":{"type":"Point","coordinates":[-73.95411749,40.74232744]}},{"type":"Feature","properties":{"addr":"W 16 St & The High Line","id":"212","use":"14352"},"geometry":{"type":"Point","coordinates":[-74.00681753,40.74334935]}},{"type":"Feature","properties":{"addr":"E 67 St & Park Ave","id":"3231","use":"2046"},"geometry":{"type":"Point","coordinates":[-73.96592080593109,40.76780080148132]}},{"type":"Feature","properties":{"addr":"Columbia St & Degraw St","id":"3422","use":"2485"},"geometry":{"type":"Point","coordinates":[-74.00242364,40.6859296]}},{"type":"Feature","properties":{"addr":"N 11 St & Wythe Ave","id":"3103","use":"2989"},"geometry":{"type":"Point","coordinates":[-73.95782357,40.72153267]}},{"type":"Feature","properties":{"addr":"Greenpoint Ave & Manhattan Ave","id":"3113","use":"4036"},"geometry":{"type":"Point","coordinates":[-73.95394,40.73026]}},{"type":"Feature","properties":{"addr":"E 2 St & 2 Ave","id":"403","use":"7757"},"geometry":{"type":"Point","coordinates":[-73.99069656,40.72502876]}},{"type":"Feature","properties":{"addr":"Broadway & W 58 St","id":"457","use":"13434"},"geometry":{"type":"Point","coordinates":[-73.98169333,40.76695317]}},{"type":"Feature","properties":{"addr":"Broadway & W 53 St","id":"469","use":"6823"},"geometry":{"type":"Point","coordinates":[-73.98268129,40.76344058]}},{"type":"Feature","properties":{"addr":"Washington Pl & 6 Ave","id":"369","use":"6314"},"geometry":{"type":"Point","coordinates":[-74.00026394,40.73224119]}},{"type":"Feature","properties":{"addr":"St James Pl & Pearl St","id":"82","use":"2471"},"geometry":{"type":"Point","coordinates":[-74.00016545,40.71117416]}},{"type":"Feature","properties":{"addr":"Cliff St & Fulton St","id":"306","use":"5942"},"geometry":{"type":"Point","coordinates":[-74.00530063,40.70823502]}},{"type":"Feature","properties":{"addr":"Montrose Ave & Bushwick Ave","id":"3074","use":"3544"},"geometry":{"type":"Point","coordinates":[-73.94016171,40.70767788]}},{"type":"Feature","properties":{"addr":"S Portland Ave & Hanson Pl","id":"353","use":"2151"},"geometry":{"type":"Point","coordinates":[-73.97431458,40.68539567]}},{"type":"Feature","properties":{"addr":"Mercer St & Bleecker St","id":"3260","use":"10824"},"geometry":{"type":"Point","coordinates":[-73.99662137031554,40.72706363348306]}},{"type":"Feature","properties":{"addr":"Madison St & Montgomery St","id":"291","use":"3405"},"geometry":{"type":"Point","coordinates":[-73.984844,40.713126]}},{"type":"Feature","properties":{"addr":"4 Ave & 9 St","id":"3403","use":"1984"},"geometry":{"type":"Point","coordinates":[-73.98876585,40.6705135]}},{"type":"Feature","properties":{"addr":"Maiden Ln & Pearl St","id":"264","use":"4988"},"geometry":{"type":"Point","coordinates":[-74.00731853,40.70706456]}},{"type":"Feature","properties":{"addr":"W 31 St & 7 Ave","id":"379","use":"14650"},"geometry":{"type":"Point","coordinates":[-73.9916,40.749156]}},{"type":"Feature","properties":{"addr":"Greenwich St & W Houston St","id":"347","use":"12762"},"geometry":{"type":"Point","coordinates":[-74.008591,40.728846]}},{"type":"Feature","properties":{"addr":"W 20 St & 11 Ave","id":"459","use":"21666"},"geometry":{"type":"Point","coordinates":[-74.007756,40.746745]}},{"type":"Feature","properties":{"addr":"W 45 St & 8 Ave","id":"2021","use":"10423"},"geometry":{"type":"Point","coordinates":[-73.98859651,40.75929124]}},{"type":"Feature","properties":{"addr":"Water - Whitehall Plaza","id":"534","use":"4008"},"geometry":{"type":"Point","coordinates":[-74.0127234,40.70255065]}},{"type":"Feature","properties":{"addr":"Johnson St & Gold St","id":"261","use":"3302"},"geometry":{"type":"Point","coordinates":[-73.98362464,40.69474881]}},{"type":"Feature","properties":{"addr":"Marcus Garvey Blvd & Macon St","id":"3046","use":"1161"},"geometry":{"type":"Point","coordinates":[-73.938037,40.682601]}},{"type":"Feature","properties":{"addr":"E 30 St & Park Ave S","id":"546","use":"9217"},"geometry":{"type":"Point","coordinates":[-73.98303529,40.74444921]}},{"type":"Feature","properties":{"addr":"E 11 St & 1 Ave","id":"326","use":"8965"},"geometry":{"type":"Point","coordinates":[-73.98426726,40.72953837]}},{"type":"Feature","properties":{"addr":"Clinton St & Joralemon St","id":"143","use":"4468"},"geometry":{"type":"Point","coordinates":[-73.99337909,40.69239502]}},{"type":"Feature","properties":{"addr":"Clinton St & Union St","id":"3321","use":"2245"},"geometry":{"type":"Point","coordinates":[-73.99785267,40.6831164]}},{"type":"Feature","properties":{"addr":"1 Ave & E 18 St","id":"2003","use":"9338"},"geometry":{"type":"Point","coordinates":[-73.98054420948029,40.733812191966315]}},{"type":"Feature","properties":{"addr":"University Pl & E 14 St","id":"382","use":"15421"},"geometry":{"type":"Point","coordinates":[-73.99200509,40.73492695]}},{"type":"Feature","properties":{"addr":"St Marks Pl & 1 Ave","id":"438","use":"9124"},"geometry":{"type":"Point","coordinates":[-73.98564945,40.72779126]}},{"type":"Feature","properties":{"addr":"W 38 St & 8 Ave","id":"523","use":"18002"},"geometry":{"type":"Point","coordinates":[-73.99138152,40.75466591]}},{"type":"Feature","properties":{"addr":"E 5 St & Avenue C","id":"393","use":"4288"},"geometry":{"type":"Point","coordinates":[-73.97995466,40.72299208]}},{"type":"Feature","properties":{"addr":"Washington St & Gansevoort St","id":"405","use":"14068"},"geometry":{"type":"Point","coordinates":[-74.008119,40.739323]}},{"type":"Feature","properties":{"addr":"2 Ave & E 99 St","id":"3338","use":"973"},"geometry":{"type":"Point","coordinates":[-73.94552579,40.7862586]}},{"type":"Feature","properties":{"addr":"W 55 St & 6 Ave","id":"3458","use":"8760"},"geometry":{"type":"Point","coordinates":[-73.9783501625061,40.76309387270797]}},{"type":"Feature","properties":{"addr":"E 71 St & 1 Ave","id":"3447","use":"3892"},"geometry":{"type":"Point","coordinates":[-73.95622730255127,40.76703432309872]}},{"type":"Feature","properties":{"addr":"Court St & State St","id":"3402","use":"4598"},"geometry":{"type":"Point","coordinates":[-73.99203074,40.6902375]}},{"type":"Feature","properties":{"addr":"Cambridge Pl & Gates Ave","id":"3049","use":"1220"},"geometry":{"type":"Point","coordinates":[-73.96304,40.68488]}},{"type":"Feature","properties":{"addr":"W 43 St & 6 Ave","id":"524","use":"10784"},"geometry":{"type":"Point","coordinates":[-73.98316936,40.75527307]}},{"type":"Feature","properties":{"addr":"Peck Slip & Front St","id":"279","use":"8987"},"geometry":{"type":"Point","coordinates":[-74.00167,40.707873]}},{"type":"Feature","properties":{"addr":"W 52 St & 9 Ave","id":"449","use":"5725"},"geometry":{"type":"Point","coordinates":[-73.98789473,40.76461837]}},{"type":"Feature","properties":{"addr":"E 55 St & Lexington Ave","id":"2023","use":"4848"},"geometry":{"type":"Point","coordinates":[-73.97031366,40.75968085]}},{"type":"Feature","properties":{"addr":"Union Ave & Jackson St","id":"3088","use":"1600"},"geometry":{"type":"Point","coordinates":[-73.952029,40.7160751]}},{"type":"Feature","properties":{"addr":"Bank St & Washington St","id":"238","use":"6456"},"geometry":{"type":"Point","coordinates":[-74.00859207,40.7361967]}},{"type":"Feature","properties":{"addr":"E 48 St & 5 Ave","id":"3233","use":"9393"},"geometry":{"type":"Point","coordinates":[-73.97805914282799,40.75724567911726]}},{"type":"Feature","properties":{"addr":"5 Ave & E 88 St","id":"3282","use":"9427"},"geometry":{"type":"Point","coordinates":[-73.95939,40.78307]}},{"type":"Feature","properties":{"addr":"Bedford Ave & S 9 St","id":"443","use":"954"},"geometry":{"type":"Point","coordinates":[-73.96408963,40.70853074]}},{"type":"Feature","properties":{"addr":"2 Ave & 9 St","id":"3401","use":"774"},"geometry":{"type":"Point","coordinates":[-73.99331394,40.6724811]}},{"type":"Feature","properties":{"addr":"Lafayette Ave & Classon Ave","id":"364","use":"2453"},"geometry":{"type":"Point","coordinates":[-73.96023854,40.68900443]}},{"type":"Feature","properties":{"addr":"E 32 St & Park Ave","id":"472","use":"11333"},"geometry":{"type":"Point","coordinates":[-73.98194829,40.7457121]}},{"type":"Feature","properties":{"addr":"E 10 St & 5 Ave","id":"280","use":"5900"},"geometry":{"type":"Point","coordinates":[-73.99510132,40.73331967]}},{"type":"Feature","properties":{"addr":"E 39 St & 3 Ave","id":"167","use":"10005"},"geometry":{"type":"Point","coordinates":[-73.97604882,40.7489006]}},{"type":"Feature","properties":{"addr":"E 106 St & Lexington Ave","id":"3424","use":"1087"},"geometry":{"type":"Point","coordinates":[-73.945993,40.791976]}},{"type":"Feature","properties":{"addr":"Plaza St West & Flatbush Ave","id":"3418","use":"4658"},"geometry":{"type":"Point","coordinates":[-73.97111473,40.6750207]}},{"type":"Feature","properties":{"addr":"Prospect Park West & 8 St","id":"3300","use":"2751"},"geometry":{"type":"Point","coordinates":[-73.97637605667114,40.66514681533792]}},{"type":"Feature","properties":{"addr":"E 25 St & 2 Ave","id":"507","use":"10966"},"geometry":{"type":"Point","coordinates":[-73.97973776,40.73912601]}},{"type":"Feature","properties":{"addr":"Lawrence St & Willoughby St","id":"323","use":"4973"},"geometry":{"type":"Point","coordinates":[-73.98631746,40.69236178]}},{"type":"Feature","properties":{"addr":"Pike St & E Broadway","id":"295","use":"5800"},"geometry":{"type":"Point","coordinates":[-73.99293911,40.71406667]}},{"type":"Feature","properties":{"addr":"E 48 St & 3 Ave","id":"228","use":"5722"},"geometry":{"type":"Point","coordinates":[-73.971878855,40.7546011026]}},{"type":"Feature","properties":{"addr":"E 95 St & 3 Ave","id":"3325","use":"1783"},"geometry":{"type":"Point","coordinates":[-73.950503,40.7849032]}},{"type":"Feature","properties":{"addr":"LaGuardia Pl & W 3 St","id":"161","use":"11062"},"geometry":{"type":"Point","coordinates":[-73.99810231,40.72917025]}},{"type":"Feature","properties":{"addr":"Franklin St & Dupont St","id":"3117","use":"2017"},"geometry":{"type":"Point","coordinates":[-73.95866,40.73564]}},{"type":"Feature","properties":{"addr":"Broad St & Bridge St","id":"260","use":"3165"},"geometry":{"type":"Point","coordinates":[-74.01167797,40.70365182]}},{"type":"Feature","properties":{"addr":"Roebling St & N 4 St","id":"3085","use":"3045"},"geometry":{"type":"Point","coordinates":[-73.95739,40.71469]}},{"type":"Feature","properties":{"addr":"Graham Ave & Withers St","id":"3094","use":"1841"},"geometry":{"type":"Point","coordinates":[-73.94485918,40.7169811]}},{"type":"Feature","properties":{"addr":"W 45 St & 6 Ave","id":"3466","use":"6850"},"geometry":{"type":"Point","coordinates":[-73.98257732391357,40.75668720603179]}},{"type":"Feature","properties":{"addr":"Grand St & Greene St","id":"2010","use":"7587"},"geometry":{"type":"Point","coordinates":[-74.00234737,40.72165481]}},{"type":"Feature","properties":{"addr":"E 20 St & Park Ave","id":"503","use":"10792"},"geometry":{"type":"Point","coordinates":[-73.98751968,40.73827428]}},{"type":"Feature","properties":{"addr":"Central Park West & W 68 St","id":"3163","use":"9708"},"geometry":{"type":"Point","coordinates":[-73.97782542,40.7734066]}},{"type":"Feature","properties":{"addr":"E 19 St & 3 Ave","id":"325","use":"7247"},"geometry":{"type":"Point","coordinates":[-73.98473765,40.73624527]}},{"type":"Feature","properties":{"addr":"E 47 St & 1 Ave","id":"516","use":"4035"},"geometry":{"type":"Point","coordinates":[-73.96784384,40.75206862]}},{"type":"Feature","properties":{"addr":"S 3 St & Bedford Ave","id":"481","use":"4447"},"geometry":{"type":"Point","coordinates":[-73.96264403,40.71260486]}},{"type":"Feature","properties":{"addr":"Hope St & Union Ave","id":"3082","use":"3149"},"geometry":{"type":"Point","coordinates":[-73.95141312,40.71167351]}},{"type":"Feature","properties":{"addr":"Union St & 4 Ave","id":"3335","use":"2809"},"geometry":{"type":"Point","coordinates":[-73.98282002,40.6772744]}},{"type":"Feature","properties":{"addr":"Lefferts Pl & Franklin Ave","id":"396","use":"3096"},"geometry":{"type":"Point","coordinates":[-73.9557689392,40.680342423]}},{"type":"Feature","properties":{"addr":"E 89 St & York Ave","id":"3290","use":"3097"},"geometry":{"type":"Point","coordinates":[-73.946041,40.7779453]}},{"type":"Feature","properties":{"addr":"W 100 St & Manhattan Ave","id":"3328","use":"2310"},"geometry":{"type":"Point","coordinates":[-73.9645,40.795]}},{"type":"Feature","properties":{"addr":"Hicks St & Montague St","id":"406","use":"4406"},"geometry":{"type":"Point","coordinates":[-73.99595065,40.69512845]}},{"type":"Feature","properties":{"addr":"Broadway & W 24 St","id":"444","use":"14913"},"geometry":{"type":"Point","coordinates":[-73.98915076,40.7423543]}},{"type":"Feature","properties":{"addr":"9 Ave & W 22 St","id":"509","use":"14079"},"geometry":{"type":"Point","coordinates":[-74.00197139,40.7454973]}},{"type":"Feature","properties":{"addr":"Berry St & N 8 St","id":"3092","use":"5241"},"geometry":{"type":"Point","coordinates":[-73.95852515,40.7190095]}},{"type":"Feature","properties":{"addr":"6 Ave & 12 St","id":"3313","use":"1361"},"geometry":{"type":"Point","coordinates":[-73.9854617,40.6663181]}},{"type":"Feature","properties":{"addr":"Riverside Dr & W 89 St","id":"3445","use":"2540"},"geometry":{"type":"Point","coordinates":[-73.9786022901535,40.79181171501097]}},{"type":"Feature","properties":{"addr":"Kent Ave & N 7 St","id":"3016","use":"9772"},"geometry":{"type":"Point","coordinates":[-73.96165072917938,40.72036775298455]}},{"type":"Feature","properties":{"addr":"Bayard St & Baxter St","id":"355","use":"7472"},"geometry":{"type":"Point","coordinates":[-73.99974372,40.71602118]}},{"type":"Feature","properties":{"addr":"Watts St & Greenwich St","id":"328","use":"8824"},"geometry":{"type":"Point","coordinates":[-74.00965965,40.72405549]}},{"type":"Feature","properties":{"addr":"Columbus Ave & W 72 St","id":"3164","use":"8791"},"geometry":{"type":"Point","coordinates":[-73.97898475,40.7770575]}},{"type":"Feature","properties":{"addr":"Madison Ave & E 82 St","id":"3362","use":"4164"},"geometry":{"type":"Point","coordinates":[-73.96069399,40.7781314]}},{"type":"Feature","properties":{"addr":"Broadway & W 51 St","id":"500","use":"7430"},"geometry":{"type":"Point","coordinates":[-73.98336183,40.76228826]}},{"type":"Feature","properties":{"addr":"E 44 St & 2 Ave","id":"3462","use":"4744"},"geometry":{"type":"Point","coordinates":[-73.97138714790344,40.75118387463277]}},{"type":"Feature","properties":{"addr":"E 58 St & 3 Ave","id":"305","use":"8639"},"geometry":{"type":"Point","coordinates":[-73.96724467,40.76095756]}},{"type":"Feature","properties":{"addr":"W 42 St & Dyer Ave","id":"3236","use":"8147"},"geometry":{"type":"Point","coordinates":[-73.99379968643188,40.75898481399634]}},{"type":"Feature","properties":{"addr":"Duffield St & Willoughby St","id":"390","use":"3422"},"geometry":{"type":"Point","coordinates":[-73.9842844,40.69221589]}},{"type":"Feature","properties":{"addr":"Barrow St & Hudson St","id":"127","use":"13343"},"geometry":{"type":"Point","coordinates":[-74.00674436,40.73172428]}},{"type":"Feature","properties":{"addr":"Fulton St & Washington Ave","id":"384","use":"4064"},"geometry":{"type":"Point","coordinates":[-73.964915,40.683048]}},{"type":"Feature","properties":{"addr":"Myrtle Ave & Marcy Ave","id":"3062","use":"1418"},"geometry":{"type":"Point","coordinates":[-73.94954908,40.69539817]}},{"type":"Feature","properties":{"addr":"South St & Whitehall St","id":"259","use":"7294"},"geometry":{"type":"Point","coordinates":[-74.01234218,40.70122128]}},{"type":"Feature","properties":{"addr":"W 24 St & 7 Ave","id":"446","use":"13101"},"geometry":{"type":"Point","coordinates":[-73.99529885,40.74487634]}},{"type":"Feature","properties":{"addr":"Queens Plaza North & Crescent St","id":"3129","use":"5121"},"geometry":{"type":"Point","coordinates":[-73.94073717,40.75110165]}},{"type":"Feature","properties":{"addr":"Park Ave & Marcus Garvey Blvd","id":"3179","use":"782"},"geometry":{"type":"Point","coordinates":[-73.941342,40.698617]}},{"type":"Feature","properties":{"addr":"Reed St & Van Brunt St","id":"3353","use":"2301"},"geometry":{"type":"Point","coordinates":[-74.01612847,40.6747844]}},{"type":"Feature","properties":{"addr":"Cumberland St & Lafayette Ave","id":"416","use":"2710"},"geometry":{"type":"Point","coordinates":[-73.97265183,40.68753406]}},{"type":"Feature","properties":{"addr":"Hudson St & Reade St","id":"146","use":"6132"},"geometry":{"type":"Point","coordinates":[-74.0091059,40.71625008]}},{"type":"Feature","properties":{"addr":"Vesey Pl & River Terrace","id":"327","use":"14197"},"geometry":{"type":"Point","coordinates":[-74.01658354,40.7153379]}},{"type":"Feature","properties":{"addr":"Driggs Ave & Lorimer St","id":"3102","use":"2642"},"geometry":{"type":"Point","coordinates":[-73.9504154,40.72179134]}},{"type":"Feature","properties":{"addr":"E 78 St & 2 Ave","id":"3370","use":"2031"},"geometry":{"type":"Point","coordinates":[-73.95577801,40.7727966]}},{"type":"Feature","properties":{"addr":"E 27 St & 1 Ave","id":"2012","use":"7330"},"geometry":{"type":"Point","coordinates":[-73.976806,40.739445]}},{"type":"Feature","properties":{"addr":"Grand Army Plaza & Plaza St West","id":"3349","use":"6408"},"geometry":{"type":"Point","coordinates":[-73.97087984,40.6729679]}},{"type":"Feature","properties":{"addr":"Metropolitan Ave & Meeker Ave","id":"3087","use":"3114"},"geometry":{"type":"Point","coordinates":[-73.95234386,40.71413311]}},{"type":"Feature","properties":{"addr":"E 65 St & 2 Ave","id":"3376","use":"2806"},"geometry":{"type":"Point","coordinates":[-73.96222069859505,40.76471851944339]}},{"type":"Feature","properties":{"addr":"E 110 St & Madison Ave","id":"3400","use":"3574"},"geometry":{"type":"Point","coordinates":[-73.94782145,40.7961535]}},{"type":"Feature","properties":{"addr":"9 St & 44 Rd","id":"3127","use":"679"},"geometry":{"type":"Point","coordinates":[-73.9521,40.74966]}},{"type":"Feature","properties":{"addr":"Meserole Ave & Manhattan Ave","id":"3110","use":"3760"},"geometry":{"type":"Point","coordinates":[-73.95299117,40.72708584]}},{"type":"Feature","properties":{"addr":"N 12 St & Bedford Ave","id":"3101","use":"3487"},"geometry":{"type":"Point","coordinates":[-73.95484712,40.72079821]}},{"type":"Feature","properties":{"addr":"Bayard St & Leonard St","id":"3452","use":"1458"},"geometry":{"type":"Point","coordinates":[-73.94885390996933,40.71915571696044]}},{"type":"Feature","properties":{"addr":"Forsyth St & Broome St","id":"531","use":"9812"},"geometry":{"type":"Point","coordinates":[-73.99266288,40.71893904]}},{"type":"Feature","properties":{"addr":"Franklin St & W Broadway","id":"79","use":"6300"},"geometry":{"type":"Point","coordinates":[-74.00666661,40.71911552]}},{"type":"Feature","properties":{"addr":"N 15 St & Wythe Ave","id":"3105","use":"1599"},"geometry":{"type":"Point","coordinates":[-73.955736,40.724055]}},{"type":"Feature","properties":{"addr":"Pacific St & Nevins St","id":"3412","use":"1709"},"geometry":{"type":"Point","coordinates":[-73.98302136,40.6853761]}},{"type":"Feature","properties":{"addr":"E 75 St & 3 Ave","id":"3135","use":"2969"},"geometry":{"type":"Point","coordinates":[-73.95772297,40.77112927]}},{"type":"Feature","properties":{"addr":"Market St & Cherry St","id":"408","use":"3504"},"geometry":{"type":"Point","coordinates":[-73.99400398,40.71076228]}},{"type":"Feature","properties":{"addr":"E 91 St & Park Ave","id":"3294","use":"2449"},"geometry":{"type":"Point","coordinates":[-73.955327,40.7835016]}},{"type":"Feature","properties":{"addr":"Columbia Heights & Cranberry St","id":"216","use":"1732"},"geometry":{"type":"Point","coordinates":[-73.99548059,40.70037867]}},{"type":"Feature","properties":{"addr":"3 St & 7 Ave","id":"3365","use":"2580"},"geometry":{"type":"Point","coordinates":[-73.97839676,40.6703837]}},{"type":"Feature","properties":{"addr":"E 80 St & 2 Ave","id":"3238","use":"3663"},"geometry":{"type":"Point","coordinates":[-73.9543953537941,40.77391390238118]}},{"type":"Feature","properties":{"addr":"E 58 St & Madison Ave","id":"3457","use":"4528"},"geometry":{"type":"Point","coordinates":[-73.97209525108337,40.76302594280519]}},{"type":"Feature","properties":{"addr":"E 109 St & 3 Ave","id":"3390","use":"1987"},"geometry":{"type":"Point","coordinates":[-73.9432083,40.79329668]}},{"type":"Feature","properties":{"addr":"Front St & Washington St","id":"2000","use":"5969"},"geometry":{"type":"Point","coordinates":[-73.98940236,40.70255088]}},{"type":"Feature","properties":{"addr":"Clark St & Henry St","id":"391","use":"5069"},"geometry":{"type":"Point","coordinates":[-73.99344559,40.69760127]}},{"type":"Feature","properties":{"addr":"W 56 St & 10 Ave","id":"513","use":"5551"},"geometry":{"type":"Point","coordinates":[-73.988639,40.768254]}},{"type":"Feature","properties":{"addr":"1 Ave & E 44 St","id":"455","use":"6567"},"geometry":{"type":"Point","coordinates":[-73.96905301,40.75001986]}},{"type":"Feature","properties":{"addr":"Suffolk St & Stanton St","id":"410","use":"9778"},"geometry":{"type":"Point","coordinates":[-73.98517977,40.72066442]}},{"type":"Feature","properties":{"addr":"McKibbin St & Manhattan Ave","id":"3070","use":"900"},"geometry":{"type":"Point","coordinates":[-73.94407279,40.70510918]}},{"type":"Feature","properties":{"addr":"Fulton St & Grand Ave","id":"365","use":"2249"},"geometry":{"type":"Point","coordinates":[-73.9614583,40.68223166]}},{"type":"Feature","properties":{"addr":"Berkeley Pl & 6 Ave","id":"3339","use":"1766"},"geometry":{"type":"Point","coordinates":[-73.97846879,40.6765304]}},{"type":"Feature","properties":{"addr":"Cathedral Pkwy & Broadway","id":"3383","use":"7030"},"geometry":{"type":"Point","coordinates":[-73.96699104,40.804213]}},{"type":"Feature","properties":{"addr":"W 82 St & Central Park West","id":"3226","use":"5227"},"geometry":{"type":"Point","coordinates":[-73.97137,40.78275]}},{"type":"Feature","properties":{"addr":"W 90 St & Amsterdam Ave","id":"3289","use":"2522"},"geometry":{"type":"Point","coordinates":[-73.97288918495178,40.79017948095081]}},{"type":"Feature","properties":{"addr":"South St & Gouverneur Ln","id":"315","use":"9941"},"geometry":{"type":"Point","coordinates":[-74.00670227,40.70355377]}},{"type":"Feature","properties":{"addr":"W 92 St & Broadway","id":"3293","use":"3474"},"geometry":{"type":"Point","coordinates":[-73.9739,40.7921]}},{"type":"Feature","properties":{"addr":"E 88 St & Park Ave","id":"3284","use":"2230"},"geometry":{"type":"Point","coordinates":[-73.95595908164978,40.781410700190015]}},{"type":"Feature","properties":{"addr":"Banker St & Meserole Ave","id":"3109","use":"3070"},"geometry":{"type":"Point","coordinates":[-73.95621,40.72606]}},{"type":"Feature","properties":{"addr":"India St & Manhattan Ave","id":"3115","use":"3216"},"geometry":{"type":"Point","coordinates":[-73.9550858,40.73232194]}},{"type":"Feature","properties":{"addr":"West Thames St","id":"363","use":"9464"},"geometry":{"type":"Point","coordinates":[-74.01713445,40.70834698]}},{"type":"Feature","properties":{"addr":"Lexington Ave & Classon Ave","id":"120","use":"1667"},"geometry":{"type":"Point","coordinates":[-73.95928168,40.68676793]}},{"type":"Feature","properties":{"addr":"Henry St & Atlantic Ave","id":"157","use":"4188"},"geometry":{"type":"Point","coordinates":[-73.99612349,40.69089272]}},{"type":"Feature","properties":{"addr":"E 16 St & Irving Pl","id":"3463","use":"6813"},"geometry":{"type":"Point","coordinates":[-73.98797392845154,40.735367055605394]}},{"type":"Feature","properties":{"addr":"W 26 St & 8 Ave","id":"494","use":"11441"},"geometry":{"type":"Point","coordinates":[-73.99723551,40.74734825]}},{"type":"Feature","properties":{"addr":"Lexington Ave & E 24 St","id":"537","use":"11216"},"geometry":{"type":"Point","coordinates":[-73.98409214,40.74025878]}},{"type":"Feature","properties":{"addr":"Henry St & Poplar St","id":"407","use":"2299"},"geometry":{"type":"Point","coordinates":[-73.991454,40.700469]}},{"type":"Feature","properties":{"addr":"E 97 St & 3 Ave","id":"3309","use":"781"},"geometry":{"type":"Point","coordinates":[-73.94860294,40.7859201]}},{"type":"Feature","properties":{"addr":"Central Park North & Adam Clayton Powell Blvd","id":"3374","use":"10996"},"geometry":{"type":"Point","coordinates":[-73.955613,40.799484]}},{"type":"Feature","properties":{"addr":"Pike St & Monroe St","id":"331","use":"3255"},"geometry":{"type":"Point","coordinates":[-73.99193043,40.71173107]}},{"type":"Feature","properties":{"addr":"W 37 St & 10 Ave","id":"448","use":"9682"},"geometry":{"type":"Point","coordinates":[-73.9979009,40.75660359]}},{"type":"Feature","properties":{"addr":"Front St & Maiden Ln","id":"351","use":"5500"},"geometry":{"type":"Point","coordinates":[-74.00612572,40.70530954]}},{"type":"Feature","properties":{"addr":"Columbus Ave & W 95 St","id":"3301","use":"4020"},"geometry":{"type":"Point","coordinates":[-73.968087,40.7919557]}},{"type":"Feature","properties":{"addr":"W 95 St & Broadway","id":"3314","use":"4694"},"geometry":{"type":"Point","coordinates":[-73.971888,40.7937704]}},{"type":"Feature","properties":{"addr":"W 100 St & Broadway","id":"3350","use":"4135"},"geometry":{"type":"Point","coordinates":[-73.97041192,40.7973721]}},{"type":"Feature","properties":{"addr":"Norman Ave & Leonard St - 2","id":"3111","use":"2417"},"geometry":{"type":"Point","coordinates":[-73.95064893,40.7258483]}},{"type":"Feature","properties":{"addr":"Atlantic Ave & Fort Greene Pl","id":"83","use":"3208"},"geometry":{"type":"Point","coordinates":[-73.97632328,40.68382604]}},{"type":"Feature","properties":{"addr":"Fulton St & Clermont Ave","id":"397","use":"1843"},"geometry":{"type":"Point","coordinates":[-73.96922273,40.68415748]}},{"type":"Feature","properties":{"addr":"Central Park S & 6 Ave","id":"2006","use":"16473"},"geometry":{"type":"Point","coordinates":[-73.97634151,40.76590936]}},{"type":"Feature","properties":{"addr":"W 13 St & 6 Ave","id":"345","use":"10020"},"geometry":{"type":"Point","coordinates":[-73.99704374,40.73649403]}},{"type":"Feature","properties":{"addr":"12 Ave & W 40 St","id":"514","use":"22573"},"geometry":{"type":"Point","coordinates":[-74.00277668,40.76087502]}},{"type":"Feature","properties":{"addr":"E 3 St & 1 Ave","id":"428","use":"9936"},"geometry":{"type":"Point","coordinates":[-73.98783413,40.72467721]}},{"type":"Feature","properties":{"addr":"Bus Slip & State St","id":"427","use":"5913"},"geometry":{"type":"Point","coordinates":[-74.013942,40.701907]}},{"type":"Feature","properties":{"addr":"1 Ave & E 62 St","id":"3142","use":"8273"},"geometry":{"type":"Point","coordinates":[-73.96094022,40.7612274]}},{"type":"Feature","properties":{"addr":"Lispenard St & Broadway","id":"257","use":"8058"},"geometry":{"type":"Point","coordinates":[-74.00247214,40.71939226]}},{"type":"Feature","properties":{"addr":"Franklin Ave & Myrtle Ave","id":"372","use":"1339"},"geometry":{"type":"Point","coordinates":[-73.958089,40.694528]}},{"type":"Feature","properties":{"addr":"Leonard St & Maujer St","id":"3454","use":"1846"},"geometry":{"type":"Point","coordinates":[-73.94705951213837,40.7103685423523]}},{"type":"Feature","properties":{"addr":"E 9 St & Avenue C","id":"394","use":"7042"},"geometry":{"type":"Point","coordinates":[-73.97768752,40.72521311]}},{"type":"Feature","properties":{"addr":"E 4 St & 2 Ave","id":"439","use":"9413"},"geometry":{"type":"Point","coordinates":[-73.98978041,40.7262807]}},{"type":"Feature","properties":{"addr":"Emerson Pl & Myrtle Ave","id":"354","use":"2547"},"geometry":{"type":"Point","coordinates":[-73.96223558,40.69363137]}},{"type":"Feature","properties":{"addr":"Fulton St & Utica Ave","id":"3042","use":"1605"},"geometry":{"type":"Point","coordinates":[-73.9298911,40.6794268]}},{"type":"Feature","properties":{"addr":"Smith St & 9 St","id":"3398","use":"1972"},"geometry":{"type":"Point","coordinates":[-73.99785768,40.6746957]}},{"type":"Feature","properties":{"addr":"Columbia St & Lorraine St","id":"3333","use":"316"},"geometry":{"type":"Point","coordinates":[-74.0075572,40.6747055]}},{"type":"Feature","properties":{"addr":"E 68 St & 3 Ave","id":"3131","use":"2158"},"geometry":{"type":"Point","coordinates":[-73.96224617958069,40.76712840349542]}},{"type":"Feature","properties":{"addr":"3 St & Prospect Park West","id":"3354","use":"3466"},"geometry":{"type":"Point","coordinates":[-73.97363831,40.668132]}},{"type":"Feature","properties":{"addr":"Fulton St & Rockwell Pl","id":"243","use":"3003"},"geometry":{"type":"Point","coordinates":[-73.979382,40.688226]}},{"type":"Feature","properties":{"addr":"E 6 St & Avenue B","id":"317","use":"7972"},"geometry":{"type":"Point","coordinates":[-73.98185424,40.72453734]}},{"type":"Feature","properties":{"addr":"Bushwick Ave & Powers St","id":"3083","use":"2330"},"geometry":{"type":"Point","coordinates":[-73.94100005,40.71247661]}},{"type":"Feature","properties":{"addr":"Fulton St & William St","id":"316","use":"5525"},"geometry":{"type":"Point","coordinates":[-74.00653609,40.70955958]}},{"type":"Feature","properties":{"addr":"E 76 St & Park Ave","id":"3378","use":"3356"},"geometry":{"type":"Point","coordinates":[-73.96222088,40.773763]}},{"type":"Feature","properties":{"addr":"E 2 St & Avenue C","id":"150","use":"5219"},"geometry":{"type":"Point","coordinates":[-73.98085795,40.7208736]}},{"type":"Feature","properties":{"addr":"Adelphi St & Myrtle Ave","id":"270","use":"3194"},"geometry":{"type":"Point","coordinates":[-73.97178913,40.69308257]}},{"type":"Feature","properties":{"addr":"Avenue D & E 3 St","id":"302","use":"3926"},"geometry":{"type":"Point","coordinates":[-73.97793172,40.72082834]}},{"type":"Feature","properties":{"addr":"Carroll St & 5 Ave","id":"3364","use":"2449"},"geometry":{"type":"Point","coordinates":[-73.9814832,40.6751622]}},{"type":"Feature","properties":{"addr":"Carlton Ave & Flushing Ave","id":"242","use":"2972"},"geometry":{"type":"Point","coordinates":[-73.973736,40.697787]}},{"type":"Feature","properties":{"addr":"Spruce St & Nassau St","id":"224","use":"4246"},"geometry":{"type":"Point","coordinates":[-74.00552427,40.71146364]}},{"type":"Feature","properties":{"addr":"2 Ave  & E 104 St","id":"3425","use":"1761"},"geometry":{"type":"Point","coordinates":[-73.94370784,40.7892105]}},{"type":"Feature","properties":{"addr":"West End Ave & W 94 St","id":"3307","use":"3735"},"geometry":{"type":"Point","coordinates":[-73.974124,40.7941654]}},{"type":"Feature","properties":{"addr":"Graham Ave & Grand St","id":"3081","use":"1932"},"geometry":{"type":"Point","coordinates":[-73.944024,40.711863]}},{"type":"Feature","properties":{"addr":"E 6 St & Avenue D","id":"411","use":"4029"},"geometry":{"type":"Point","coordinates":[-73.97668709,40.72228087]}},{"type":"Feature","properties":{"addr":"14 St & 5 Ave","id":"3319","use":"2141"},"geometry":{"type":"Point","coordinates":[-73.98895053,40.666287]}},{"type":"Feature","properties":{"addr":"Clinton St & 4 Place","id":"3396","use":"2357"},"geometry":{"type":"Point","coordinates":[-74.00014502,40.6783563]}},{"type":"Feature","properties":{"addr":"W 67 St & Broadway","id":"3159","use":"6786"},"geometry":{"type":"Point","coordinates":[-73.98266566,40.77492513]}},{"type":"Feature","properties":{"addr":"W 44 St & 5 Ave","id":"484","use":"8988"},"geometry":{"type":"Point","coordinates":[-73.98014437,40.75500254]}},{"type":"Feature","properties":{"addr":"Pulaski St & Marcus Garvey Blvd","id":"3059","use":"815"},"geometry":{"type":"Point","coordinates":[-73.939877,40.6933982]}},{"type":"Feature","properties":{"addr":"E 55 St & 2 Ave","id":"385","use":"6789"},"geometry":{"type":"Point","coordinates":[-73.96603308,40.75797322]}},{"type":"Feature","properties":{"addr":"Throop Ave & Myrtle Ave","id":"3061","use":"660"},"geometry":{"type":"Point","coordinates":[-73.94371094,40.69622937]}},{"type":"Feature","properties":{"addr":"Broadway & Battery Pl","id":"304","use":"12203"},"geometry":{"type":"Point","coordinates":[-74.01361706,40.70463334]}},{"type":"Feature","properties":{"addr":"Central Park West & W 85 St","id":"3168","use":"7942"},"geometry":{"type":"Point","coordinates":[-73.96961715,40.78472675]}},{"type":"Feature","properties":{"addr":"Amsterdam Ave & W 66 St","id":"3356","use":"2613"},"geometry":{"type":"Point","coordinates":[-73.98470567,40.7746671]}},{"type":"Feature","properties":{"addr":"W 52 St & 5 Ave","id":"520","use":"6972"},"geometry":{"type":"Point","coordinates":[-73.97648516,40.75992262]}},{"type":"Feature","properties":{"addr":"45 Rd & 11 St","id":"3125","use":"2428"},"geometry":{"type":"Point","coordinates":[-73.94977234,40.74708586]}},{"type":"Feature","properties":{"addr":"E 81 St & York Ave","id":"3151","use":"4037"},"geometry":{"type":"Point","coordinates":[-73.94989233,40.7728384]}},{"type":"Feature","properties":{"addr":"E 72 St & York Ave","id":"3156","use":"5802"},"geometry":{"type":"Point","coordinates":[-73.95348296,40.76663814]}},{"type":"Feature","properties":{"addr":"E 106 St & Madison Ave","id":"3387","use":"1252"},"geometry":{"type":"Point","coordinates":[-73.94945003,40.7934337]}},{"type":"Feature","properties":{"addr":"DeKalb Ave & Skillman St","id":"409","use":"1570"},"geometry":{"type":"Point","coordinates":[-73.95643107,40.6906495]}},{"type":"Feature","properties":{"addr":"York St & Jay St","id":"430","use":"6780"},"geometry":{"type":"Point","coordinates":[-73.98656928,40.7014851]}},{"type":"Feature","properties":{"addr":"Leonard St & Boerum St","id":"3072","use":"1168"},"geometry":{"type":"Point","coordinates":[-73.94644578,40.70583339]}},{"type":"Feature","properties":{"addr":"Canal St & Rutgers St","id":"307","use":"8308"},"geometry":{"type":"Point","coordinates":[-73.98990025,40.71427487]}},{"type":"Feature","properties":{"addr":"Kent Ave & S 11 St","id":"282","use":"4035"},"geometry":{"type":"Point","coordinates":[-73.96841526031494,40.707644944175705]}},{"type":"Feature","properties":{"addr":"S 4 St & Rodney St","id":"3080","use":"2231"},"geometry":{"type":"Point","coordinates":[-73.95608,40.70934]}},{"type":"Feature","properties":{"addr":"Cleveland Pl & Spring St","id":"151","use":"16147"},"geometry":{"type":"Point","coordinates":[-73.99724900722504,40.722103786686034]}},{"type":"Feature","properties":{"addr":"Liberty St & Broadway","id":"195","use":"8692"},"geometry":{"type":"Point","coordinates":[-74.01043382,40.70905623]}},{"type":"Feature","properties":{"addr":"E 84 St & 1 Ave","id":"3148","use":"1755"},"geometry":{"type":"Point","coordinates":[-73.95068615,40.77565541]}},{"type":"Feature","properties":{"addr":"1 Ave & E 78 St","id":"3140","use":"7842"},"geometry":{"type":"Point","coordinates":[-73.9535166,40.77140426]}},{"type":"Feature","properties":{"addr":"Wythe Ave & Metropolitan Ave","id":"2002","use":"7140"},"geometry":{"type":"Point","coordinates":[-73.963198,40.716887]}},{"type":"Feature","properties":{"addr":"West Drive & Prospect Park West","id":"3423","use":"5464"},"geometry":{"type":"Point","coordinates":[-73.97945255041122,40.6610633719006]}},{"type":"Feature","properties":{"addr":"E 47 St & Park Ave","id":"359","use":"15613"},"geometry":{"type":"Point","coordinates":[-73.97498696,40.75510267]}},{"type":"Feature","properties":{"addr":"Nassau Ave & Russell St","id":"3108","use":"3311"},"geometry":{"type":"Point","coordinates":[-73.94434,40.72557]}},{"type":"Feature","properties":{"addr":"Broadway & W 56 St","id":"468","use":"9746"},"geometry":{"type":"Point","coordinates":[-73.98192338,40.7652654]}},{"type":"Feature","properties":{"addr":"Lewis Ave & Decatur St","id":"3043","use":"866"},"geometry":{"type":"Point","coordinates":[-73.934903,40.6814598]}},{"type":"Feature","properties":{"addr":"Columbia St & Kane St","id":"3311","use":"2372"},"geometry":{"type":"Point","coordinates":[-74.0016256,40.68763155]}},{"type":"Feature","properties":{"addr":"Pearl St & Anchorage Pl","id":"414","use":"4259"},"geometry":{"type":"Point","coordinates":[-73.98765762,40.70281858]}},{"type":"Feature","properties":{"addr":"Madison St & Clinton St","id":"340","use":"3792"},"geometry":{"type":"Point","coordinates":[-73.98776323,40.71269042]}},{"type":"Feature","properties":{"addr":"3 Ave & E 71 St","id":"3152","use":"2381"},"geometry":{"type":"Point","coordinates":[-73.96119945,40.76873687]}},{"type":"Feature","properties":{"addr":"Division St & Bowery","id":"296","use":"6359"},"geometry":{"type":"Point","coordinates":[-73.9970468,40.71413089]}},{"type":"Feature","properties":{"addr":"Barclay St & Church St","id":"417","use":"10522"},"geometry":{"type":"Point","coordinates":[-74.01020234,40.71291224]}},{"type":"Feature","properties":{"addr":"Mercer St & Spring St","id":"303","use":"7820"},"geometry":{"type":"Point","coordinates":[-73.99949601,40.72362738]}},{"type":"Feature","properties":{"addr":"W 34 St & 11 Ave","id":"525","use":"7851"},"geometry":{"type":"Point","coordinates":[-74.0021163,40.75594159]}},{"type":"Feature","properties":{"addr":"Reade St & Broadway","id":"330","use":"5255"},"geometry":{"type":"Point","coordinates":[-74.00562789,40.71450451]}},{"type":"Feature","properties":{"addr":"Front St & Gold St","id":"418","use":"2649"},"geometry":{"type":"Point","coordinates":[-73.982578,40.70224]}},{"type":"Feature","properties":{"addr":"6 Ave & 9 St","id":"3304","use":"2286"},"geometry":{"type":"Point","coordinates":[-73.98377641,40.668127]}},{"type":"Feature","properties":{"addr":"Cherry St","id":"332","use":"3946"},"geometry":{"type":"Point","coordinates":[-73.97948148,40.71219906]}},{"type":"Feature","properties":{"addr":"Leonard St & Church St","id":"320","use":"6036"},"geometry":{"type":"Point","coordinates":[-74.005549,40.717571]}},{"type":"Feature","properties":{"addr":"E 53 St & Madison Ave","id":"456","use":"5519"},"geometry":{"type":"Point","coordinates":[-73.97402311,40.7597108]}},{"type":"Feature","properties":{"addr":"Greenwich St & Hubert St","id":"3436","use":"8367"},"geometry":{"type":"Point","coordinates":[-74.010065,40.721319]}},{"type":"Feature","properties":{"addr":"N 6 St & Bedford Ave","id":"3093","use":"7697"},"geometry":{"type":"Point","coordinates":[-73.95850939,40.71745169]}},{"type":"Feature","properties":{"addr":"E 60 St & York Ave","id":"2022","use":"1932"},"geometry":{"type":"Point","coordinates":[-73.959223,40.759107]}},{"type":"Feature","properties":{"addr":"Clermont Ave & Lafayette Ave","id":"420","use":"1627"},"geometry":{"type":"Point","coordinates":[-73.96968902,40.68764484]}},{"type":"Feature","properties":{"addr":"E 41 St & Madison Ave","id":"3235","use":"5256"},"geometry":{"type":"Point","coordinates":[-73.97992193698882,40.752165280621966]}},{"type":"Feature","properties":{"addr":"W 46 St & 11 Ave","id":"508","use":"8673"},"geometry":{"type":"Point","coordinates":[-73.99667444,40.76341379]}},{"type":"Feature","properties":{"addr":"Columbia St & Rivington St","id":"342","use":"3859"},"geometry":{"type":"Point","coordinates":[-73.98016555,40.71739973]}},{"type":"Feature","properties":{"addr":"N 8 St & Driggs Ave","id":"3090","use":"7169"},"geometry":{"type":"Point","coordinates":[-73.95600096,40.71774592]}},{"type":"Feature","properties":{"addr":"3 Ave & E 72 St","id":"3375","use":"2023"},"geometry":{"type":"Point","coordinates":[-73.96060712,40.7699426]}},{"type":"Feature","properties":{"addr":"E 97 St & Madison Ave","id":"3336","use":"3285"},"geometry":{"type":"Point","coordinates":[-73.953559,40.787801]}},{"type":"Feature","properties":{"addr":"W 76 St & Columbus Ave","id":"3161","use":"4604"},"geometry":{"type":"Point","coordinates":[-73.97728532552719,40.7801839724239]}},{"type":"Feature","properties":{"addr":"7 St & 3 Ave","id":"3399","use":"998"},"geometry":{"type":"Point","coordinates":[-73.98983001708984,40.67260298150126]}},{"type":"Feature","properties":{"addr":"Hanson Pl & Ashland Pl","id":"3429","use":"7287"},"geometry":{"type":"Point","coordinates":[-73.97790759801863,40.68506807308177]}},{"type":"Feature","properties":{"addr":"44 Dr & Jackson Ave","id":"3126","use":"2496"},"geometry":{"type":"Point","coordinates":[-73.9432635,40.74718234]}},{"type":"Feature","properties":{"addr":"E 81 St & Park Ave","id":"3144","use":"1389"},"geometry":{"type":"Point","coordinates":[-73.9590097,40.77677702]}},{"type":"Feature","properties":{"addr":"Nostrand Ave & Myrtle Ave","id":"3063","use":"682"},"geometry":{"type":"Point","coordinates":[-73.95238108,40.69527008]}},{"type":"Feature","properties":{"addr":"E 74 St & 1 Ave","id":"3372","use":"4387"},"geometry":{"type":"Point","coordinates":[-73.95482273,40.7689738]}},{"type":"Feature","properties":{"addr":"Henry St & Degraw St","id":"3315","use":"2985"},"geometry":{"type":"Point","coordinates":[-73.99917254,40.6847514]}},{"type":"Feature","properties":{"addr":"East End Ave & E 86 St","id":"3157","use":"2025"},"geometry":{"type":"Point","coordinates":[-73.94446054,40.77518615]}},{"type":"Feature","properties":{"addr":"E 45 St & 3 Ave","id":"440","use":"6088"},"geometry":{"type":"Point","coordinates":[-73.97282625,40.75255434]}},{"type":"Feature","properties":{"addr":"E 88 St & 1 Ave","id":"3288","use":"3891"},"geometry":{"type":"Point","coordinates":[-73.9488134,40.778301]}},{"type":"Feature","properties":{"addr":"Cadman Plaza E & Tillary St","id":"232","use":"3399"},"geometry":{"type":"Point","coordinates":[-73.99014892,40.69597683]}},{"type":"Feature","properties":{"addr":"Kosciuszko St & Nostrand Ave","id":"3056","use":"1324"},"geometry":{"type":"Point","coordinates":[-73.95133465,40.69072549]}},{"type":"Feature","properties":{"addr":"Fulton St & Adams St","id":"3440","use":"4725"},"geometry":{"type":"Point","coordinates":[-73.98949474096298,40.692418292578466]}},{"type":"Feature","properties":{"addr":"W 64 St & West End Ave","id":"3176","use":"4893"},"geometry":{"type":"Point","coordinates":[-73.98753759,40.77452835]}},{"type":"Feature","properties":{"addr":"Old Slip & Front St","id":"337","use":"4019"},"geometry":{"type":"Point","coordinates":[-74.00838676,40.7037992]}},{"type":"Feature","properties":{"addr":"Jackson Ave & 46 Rd","id":"3121","use":"1248"},"geometry":{"type":"Point","coordinates":[-73.94733276,40.74524768]}},{"type":"Feature","properties":{"addr":"Central Park West & W 100 St","id":"3320","use":"3816"},"geometry":{"type":"Point","coordinates":[-73.9635556,40.793393]}},{"type":"Feature","properties":{"addr":"Madison Ave & E 99 St","id":"3345","use":"1797"},"geometry":{"type":"Point","coordinates":[-73.95242929458618,40.78948541553215]}},{"type":"Feature","properties":{"addr":"14 St & 7 Ave","id":"3310","use":"2038"},"geometry":{"type":"Point","coordinates":[-73.98396846,40.663779]}},{"type":"Feature","properties":{"addr":"Laight St & Hudson St","id":"248","use":"2740"},"geometry":{"type":"Point","coordinates":[-74.00771779,40.72185379]}},{"type":"Feature","properties":{"addr":"Cadman Plaza West & Montague St","id":"314","use":"3391"},"geometry":{"type":"Point","coordinates":[-73.990539,40.69383]}},{"type":"Feature","properties":{"addr":"Bergen St & Smith St","id":"3409","use":"6660"},"geometry":{"type":"Point","coordinates":[-73.99063168,40.6867443]}},{"type":"Feature","properties":{"addr":"W 63 St & Broadway","id":"3158","use":"8220"},"geometry":{"type":"Point","coordinates":[-73.98261428,40.77163851]}},{"type":"Feature","properties":{"addr":"Central Park West & W 76 St","id":"3160","use":"6285"},"geometry":{"type":"Point","coordinates":[-73.97374737,40.77896784]}},{"type":"Feature","properties":{"addr":"Scholes St & Manhattan Ave","id":"3076","use":"1594"},"geometry":{"type":"Point","coordinates":[-73.9448625,40.70870368]}},{"type":"Feature","properties":{"addr":"E 40 St & 5 Ave","id":"153","use":"10503"},"geometry":{"type":"Point","coordinates":[-73.9816324043,40.752062307]}},{"type":"Feature","properties":{"addr":"W 88 St & West End Ave","id":"3434","use":"2473"},"geometry":{"type":"Point","coordinates":[-73.97718340158461,40.79025417330419]}},{"type":"Feature","properties":{"addr":"Riverside Dr & W 104 St","id":"3331","use":"3530"},"geometry":{"type":"Point","coordinates":[-73.9711457439,40.8013434]}},{"type":"Feature","properties":{"addr":"Concord St & Bridge St","id":"278","use":"2114"},"geometry":{"type":"Point","coordinates":[-73.98476437,40.69766564]}},{"type":"Feature","properties":{"addr":"Washington Ave & Park Ave","id":"313","use":"2764"},"geometry":{"type":"Point","coordinates":[-73.96751037,40.69610226]}},{"type":"Feature","properties":{"addr":"3 Ave & E 62 St","id":"3134","use":"3531"},"geometry":{"type":"Point","coordinates":[-73.96526895,40.76312584]}},{"type":"Feature","properties":{"addr":"E 2 St & Avenue B","id":"301","use":"9081"},"geometry":{"type":"Point","coordinates":[-73.98368779,40.72217444]}},{"type":"Feature","properties":{"addr":"Central Park W & W 96 St","id":"3295","use":"5572"},"geometry":{"type":"Point","coordinates":[-73.964839,40.79127]}},{"type":"Feature","properties":{"addr":"Bond St & Fulton St","id":"3232","use":"3462"},"geometry":{"type":"Point","coordinates":[-73.98304268717766,40.68962188790333]}},{"type":"Feature","properties":{"addr":"W 25 St & 6 Ave","id":"466","use":"11437"},"geometry":{"type":"Point","coordinates":[-73.99144871,40.74395411]}},{"type":"Feature","properties":{"addr":"Schermerhorn St & 3 Ave","id":"3455","use":"1397"},"geometry":{"type":"Point","coordinates":[-73.98036181926727,40.68680820503432]}},{"type":"Feature","properties":{"addr":"5 Ave & E 63 St","id":"3136","use":"3622"},"geometry":{"type":"Point","coordinates":[-73.971518,40.766368]}},{"type":"Feature","properties":{"addr":"Degraw St & Smith St","id":"3329","use":"2283"},"geometry":{"type":"Point","coordinates":[-73.99318208,40.6829151]}},{"type":"Feature","properties":{"addr":"Carroll St & Bond St","id":"3377","use":"1958"},"geometry":{"type":"Point","coordinates":[-73.99037292,40.6786115]}},{"type":"Feature","properties":{"addr":"W 37 St & 5 Ave","id":"485","use":"7021"},"geometry":{"type":"Point","coordinates":[-73.98338988,40.75038009]}},{"type":"Feature","properties":{"addr":"Howard St & Centre St","id":"268","use":"8405"},"geometry":{"type":"Point","coordinates":[-73.99973337,40.71910537]}},{"type":"Feature","properties":{"addr":"Brooklyn Bridge Park - Pier 2","id":"3180","use":"3557"},"geometry":{"type":"Point","coordinates":[-73.99712,40.69878]}},{"type":"Feature","properties":{"addr":"Rivington St & Ridge St","id":"349","use":"4441"},"geometry":{"type":"Point","coordinates":[-73.98329859,40.71850211]}},{"type":"Feature","properties":{"addr":"E 76 St & 3 Ave","id":"3438","use":"2559"},"geometry":{"type":"Point","coordinates":[-73.95842134952545,40.772248537721744]}},{"type":"Feature","properties":{"addr":"W 13 St & 5 Ave","id":"253","use":"7846"},"geometry":{"type":"Point","coordinates":[-73.99453948,40.73543934]}},{"type":"Feature","properties":{"addr":"46 Ave & 5 St","id":"3124","use":"2728"},"geometry":{"type":"Point","coordinates":[-73.95451,40.74731]}},{"type":"Feature","properties":{"addr":"5 Ave & E 103 St","id":"3367","use":"3456"},"geometry":{"type":"Point","coordinates":[-73.95249933,40.7922553]}},{"type":"Feature","properties":{"addr":"Atlantic Ave & Furman St","id":"398","use":"5299"},"geometry":{"type":"Point","coordinates":[-73.9999786,40.69165183]}},{"type":"Feature","properties":{"addr":"5 Ave & E 73 St","id":"3137","use":"9315"},"geometry":{"type":"Point","coordinates":[-73.96685276,40.77282817]}},{"type":"Feature","properties":{"addr":"Washington Park","id":"262","use":"2217"},"geometry":{"type":"Point","coordinates":[-73.9737299,40.6917823]}},{"type":"Feature","properties":{"addr":"Kosciuszko St & Tompkins Ave","id":"3057","use":"1288"},"geometry":{"type":"Point","coordinates":[-73.9452416,40.69128258]}},{"type":"Feature","properties":{"addr":"E 89 St & 3 Ave","id":"3286","use":"4272"},"geometry":{"type":"Point","coordinates":[-73.9521667,40.7806284]}},{"type":"Feature","properties":{"addr":"Pershing Square South","id":"517","use":"9176"},"geometry":{"type":"Point","coordinates":[-73.97791,40.751581]}},{"type":"Feature","properties":{"addr":"Lafayette St & Jersey St","id":"3427","use":"13813"},"geometry":{"type":"Point","coordinates":[-73.99600982666016,40.72430527250332]}},{"type":"Feature","properties":{"addr":"Bond St & Schermerhorn St","id":"395","use":"3404"},"geometry":{"type":"Point","coordinates":[-73.98410637,40.68807003]}},{"type":"Feature","properties":{"addr":"Wyckoff St & 3 Ave","id":"3413","use":"1517"},"geometry":{"type":"Point","coordinates":[-73.98258555,40.6827549]}},{"type":"Feature","properties":{"addr":"McGuinness Blvd & Eagle St","id":"3118","use":"2692"},"geometry":{"type":"Point","coordinates":[-73.95284,40.73555]}},{"type":"Feature","properties":{"addr":"NYCBS Depot - GOW","id":"3432","use":"277"},"geometry":{"type":"Point","coordinates":[-73.99463653564453,40.66906013501107]}},{"type":"Feature","properties":{"addr":"4 Ave & 2 St","id":"3371","use":"1139"},"geometry":{"type":"Point","coordinates":[-73.98501142859459,40.674613422475815]}},{"type":"Feature","properties":{"addr":"W 18 St & 6 Ave","id":"168","use":"16347"},"geometry":{"type":"Point","coordinates":[-73.99456405,40.73971301]}},{"type":"Feature","properties":{"addr":"President St & Henry St","id":"3388","use":"1817"},"geometry":{"type":"Point","coordinates":[-73.99990419,40.6828003]}},{"type":"Feature","properties":{"addr":"10 Hudson Yards","id":"3441","use":"848"},"geometry":{"type":"Point","coordinates":[-74.00264,40.752957]}},{"type":"Feature","properties":{"addr":"3 Ave & 14 St","id":"3324","use":"1078"},"geometry":{"type":"Point","coordinates":[-73.99333264,40.6685455]}},{"type":"Feature","properties":{"addr":"E 51 St & 1 Ave","id":"454","use":"4539"},"geometry":{"type":"Point","coordinates":[-73.96592976,40.75455731]}},{"type":"Feature","properties":{"addr":"1 Ave & E 94 St","id":"3312","use":"2483"},"geometry":{"type":"Point","coordinates":[-73.94594,40.7817212]}},{"type":"Feature","properties":{"addr":"Avenue D & E 12 St","id":"339","use":"2438"},"geometry":{"type":"Point","coordinates":[-73.97422494,40.72580614]}},{"type":"Feature","properties":{"addr":"Riverside Dr & W 78 St","id":"3178","use":"4211"},"geometry":{"type":"Point","coordinates":[-73.98362492,40.78414472]}},{"type":"Feature","properties":{"addr":"10 St & 7 Ave","id":"3306","use":"2055"},"geometry":{"type":"Point","coordinates":[-73.98199886,40.6662078]}},{"type":"Feature","properties":{"addr":"Murray St & Greenwich St","id":"3461","use":"5897"},"geometry":{"type":"Point","coordinates":[-74.01122331619263,40.714851505262516]}},{"type":"Feature","properties":{"addr":"Central Park West & W 102 St","id":"3341","use":"2313"},"geometry":{"type":"Point","coordinates":[-73.96186,40.795346]}},{"type":"Feature","properties":{"addr":"Driggs Ave & N Henry St","id":"3106","use":"2668"},"geometry":{"type":"Point","coordinates":[-73.94308,40.72325]}},{"type":"Feature","properties":{"addr":"E 72 St & Park Ave","id":"3139","use":"3565"},"geometry":{"type":"Point","coordinates":[-73.96409422159195,40.77118287540658]}},{"type":"Feature","properties":{"addr":"Baltic St & 5 Ave","id":"3417","use":"2594"},"geometry":{"type":"Point","coordinates":[-73.97854971,40.6795766]}},{"type":"Feature","properties":{"addr":"Washington Ave & Greene Ave","id":"275","use":"1821"},"geometry":{"type":"Point","coordinates":[-73.96563307,40.68650065]}},{"type":"Feature","properties":{"addr":"Lewis Ave & Madison St","id":"3052","use":"1710"},"geometry":{"type":"Point","coordinates":[-73.935775,40.686312]}},{"type":"Feature","properties":{"addr":"Old Fulton St","id":"217","use":"8462"},"geometry":{"type":"Point","coordinates":[-73.99383605,40.70277159]}},{"type":"Feature","properties":{"addr":"3 St & 3 Ave","id":"3373","use":"2725"},"geometry":{"type":"Point","coordinates":[-73.98775226,40.6750705]}},{"type":"Feature","properties":{"addr":"W 37 St & Broadway","id":"3464","use":"6804"},"geometry":{"type":"Point","coordinates":[-73.98770570755005,40.75227093837409]}},{"type":"Feature","properties":{"addr":"Berkeley Pl & 7 Ave","id":"3346","use":"2835"},"geometry":{"type":"Point","coordinates":[-73.97523209452629,40.675146838709786]}},{"type":"Feature","properties":{"addr":"Jay St & Tech Pl","id":"392","use":"4233"},"geometry":{"type":"Point","coordinates":[-73.987167,40.695065]}},{"type":"Feature","properties":{"addr":"DeKalb Ave & S Portland Ave","id":"241","use":"2812"},"geometry":{"type":"Point","coordinates":[-73.97493121,40.68981035]}},{"type":"Feature","properties":{"addr":"Eckford St & Engert Ave","id":"3449","use":"886"},"geometry":{"type":"Point","coordinates":[-73.94800901412964,40.721462562298164]}},{"type":"Feature","properties":{"addr":"Kane St & Clinton St","id":"3308","use":"2542"},"geometry":{"type":"Point","coordinates":[-73.99645295,40.6861758]}},{"type":"Feature","properties":{"addr":"Stanton St & Mangin St","id":"341","use":"2786"},"geometry":{"type":"Point","coordinates":[-73.97628939,40.71782143]}},{"type":"Feature","properties":{"addr":"7 St & 5 Ave","id":"3404","use":"1527"},"geometry":{"type":"Point","coordinates":[-73.98541675,40.6704922]}},{"type":"Feature","properties":{"addr":"Centre St & Worth St","id":"386","use":"5679"},"geometry":{"type":"Point","coordinates":[-74.00234482,40.71494807]}},{"type":"Feature","properties":{"addr":"Riverside Blvd & W 67 St","id":"3173","use":"6616"},"geometry":{"type":"Point","coordinates":[-73.98888587951659,40.777507027547976]}},{"type":"Feature","properties":{"addr":"Degraw St & Hoyt St","id":"3332","use":"1210"},"geometry":{"type":"Point","coordinates":[-73.99079024791718,40.681990442707026]}},{"type":"Feature","properties":{"addr":"W 106 St & Amsterdam Ave","id":"3357","use":"2452"},"geometry":{"type":"Point","coordinates":[-73.9664492472,40.8008363]}},{"type":"Feature","properties":{"addr":"21 St & Queens Plaza North","id":"3130","use":"1102"},"geometry":{"type":"Point","coordinates":[-73.94335788,40.75325964]}},{"type":"Feature","properties":{"addr":"Soissons Landing","id":"3254","use":"2622"},"geometry":{"type":"Point","coordinates":[-74.01486575603485,40.69231660719192]}},{"type":"Feature","properties":{"addr":"West End Ave & W 107 St","id":"3366","use":"2109"},"geometry":{"type":"Point","coordinates":[-73.9681805305,40.8021174]}},{"type":"Feature","properties":{"addr":"Willoughby St & Fleet St","id":"239","use":"3803"},"geometry":{"type":"Point","coordinates":[-73.9813018,40.69196566]}},{"type":"Feature","properties":{"addr":"Schermerhorn St & Court St","id":"3242","use":"3038"},"geometry":{"type":"Point","coordinates":[-73.99183362722397,40.69102925677968]}},{"type":"Feature","properties":{"addr":"5 St & 6 Ave","id":"3405","use":"1280"},"geometry":{"type":"Point","coordinates":[-73.98208968,40.6704836]}},{"type":"Feature","properties":{"addr":"6 St & 7 Ave","id":"3297","use":"1257"},"geometry":{"type":"Point","coordinates":[-73.97988067,40.6686627]}},{"type":"Feature","properties":{"addr":"Willoughby Ave & Walworth St","id":"373","use":"1048"},"geometry":{"type":"Point","coordinates":[-73.95381995,40.69331716]}},{"type":"Feature","properties":{"addr":"Pioneer St & Richards St","id":"3342","use":"634"},"geometry":{"type":"Point","coordinates":[-74.0094613,40.6777748]}},{"type":"Feature","properties":{"addr":"5 Ave & 3 St","id":"3368","use":"3308"},"geometry":{"type":"Point","coordinates":[-73.98352355,40.6728155]}},{"type":"Feature","properties":{"addr":"Dwight St & Van Dyke St","id":"3337","use":"568"},"geometry":{"type":"Point","coordinates":[-74.01195555925369,40.67363551341504]}},{"type":"Feature","properties":{"addr":"Clinton St & Tillary St","id":"322","use":"2956"},"geometry":{"type":"Point","coordinates":[-73.991218,40.696192]}},{"type":"Feature","properties":{"addr":"Park Ave & St Edwards St","id":"119","use":"615"},"geometry":{"type":"Point","coordinates":[-73.97803415,40.69608941]}},{"type":"Feature","properties":{"addr":"Division Ave & Marcy Ave","id":"3075","use":"505"},"geometry":{"type":"Point","coordinates":[-73.95796783,40.70708701]}},{"type":"Feature","properties":{"addr":"Van Brunt St & Wolcott St","id":"3347","use":"1698"},"geometry":{"type":"Point","coordinates":[-74.01275056,40.6773429]}},{"type":"Feature","properties":{"addr":"Lewis Ave & Kosciuszko St","id":"3058","use":"1182"},"geometry":{"type":"Point","coordinates":[-73.93705428,40.69237074]}},{"type":"Feature","properties":{"addr":"Cadman Plaza E & Red Cross Pl","id":"321","use":"3965"},"geometry":{"type":"Point","coordinates":[-73.98971773,40.69991755]}},{"type":"Feature","properties":{"addr":"E 102 St & 1 Ave","id":"3351","use":"3058"},"geometry":{"type":"Point","coordinates":[-73.94164802,40.7869946]}},{"type":"Feature","properties":{"addr":"10 St & 5 Ave","id":"3317","use":"1362"},"geometry":{"type":"Point","coordinates":[-73.98700053,40.6686273]}},{"type":"Feature","properties":{"addr":"5 Ave & E 93 St","id":"3292","use":"3117"},"geometry":{"type":"Point","coordinates":[-73.957481,40.7857851]}},{"type":"Feature","properties":{"addr":"Railroad Ave & Kay Ave","id":"2005","use":"546"},"geometry":{"type":"Point","coordinates":[-73.97100056,40.70531194]}},{"type":"Feature","properties":{"addr":"Pitt St & Stanton St","id":"400","use":"1704"},"geometry":{"type":"Point","coordinates":[-73.98178024,40.71926081]}},{"type":"Feature","properties":{"addr":"Smith St & 3 St","id":"3384","use":"1904"},"geometry":{"type":"Point","coordinates":[-73.99599099,40.6787242]}},{"type":"Feature","properties":{"addr":"Henry St & W 9 St","id":"3395","use":"403"},"geometry":{"type":"Point","coordinates":[-74.00324957,40.6763744]}},{"type":"Feature","properties":{"addr":"E 66 St & Madison Ave","id":"3355","use":"2020"},"geometry":{"type":"Point","coordinates":[-73.96845281124115,40.76800889305947]}},{"type":"Feature","properties":{"addr":"Carroll St & Columbia St","id":"3389","use":"2115"},"geometry":{"type":"Point","coordinates":[-74.00348559,40.6830456]}},{"type":"Feature","properties":{"addr":"47 Ave & 31 St","id":"3221","use":"928"},"geometry":{"type":"Point","coordinates":[-73.93561,40.743]}},{"type":"Feature","properties":{"addr":"Clermont Ave & Park Ave","id":"421","use":"1426"},"geometry":{"type":"Point","coordinates":[-73.97129668,40.69573398]}},{"type":"Feature","properties":{"addr":"Warren St & Court St","id":"3298","use":"2647"},"geometry":{"type":"Point","coordinates":[-73.99383324,40.686371]}},{"type":"Feature","properties":{"addr":"Tompkins Ave & Hopkins St","id":"3066","use":"1097"},"geometry":{"type":"Point","coordinates":[-73.94708417,40.69957608]}},{"type":"Feature","properties":{"addr":"Carroll St & 6 Ave","id":"3361","use":"2238"},"geometry":{"type":"Point","coordinates":[-73.9787282,40.6740886]}},{"type":"Feature","properties":{"addr":"Union St & Nevins St","id":"3407","use":"2305"},"geometry":{"type":"Point","coordinates":[-73.98765474557877,40.67909799721684]}},{"type":"Feature","properties":{"addr":"Richards St & Delavan St","id":"3393","use":"784"},"geometry":{"type":"Point","coordinates":[-74.00785041,40.6794327]}},{"type":"Feature","properties":{"addr":"Butler St & Court St","id":"3303","use":"1470"},"geometry":{"type":"Point","coordinates":[-73.99440329,40.6849894]}},{"type":"Feature","properties":{"addr":"Richardson St & N Henry St","id":"3430","use":"2376"},"geometry":{"type":"Point","coordinates":[-73.94223690032959,40.71907891179564]}},{"type":"Feature","properties":{"addr":"Nassau St & Navy St","id":"144","use":"1931"},"geometry":{"type":"Point","coordinates":[-73.98068914,40.69839895]}},{"type":"Feature","properties":{"addr":"E 106 St & 1 Ave","id":"3391","use":"1500"},"geometry":{"type":"Point","coordinates":[-73.93956237,40.7892529]}},{"type":"Feature","properties":{"addr":"Pioneer St & Van Brunt St","id":"3344","use":"1524"},"geometry":{"type":"Point","coordinates":[-74.011169,40.679043]}},{"type":"Feature","properties":{"addr":"Albany Ave & Fulton St","id":"3044","use":"607"},"geometry":{"type":"Point","coordinates":[-73.938475,40.6800105]}},{"type":"Feature","properties":{"addr":"Bond St & Bergen St","id":"3411","use":"2065"},"geometry":{"type":"Point","coordinates":[-73.98620772,40.6849668]}},{"type":"Feature","properties":{"addr":"31 St & Thomson Ave","id":"3123","use":"813"},"geometry":{"type":"Point","coordinates":[-73.93540375,40.74469738]}},{"type":"Feature","properties":{"addr":"E 58 St & 1 Ave","id":"3243","use":"4019"},"geometry":{"type":"Point","coordinates":[-73.96226227283478,40.75892386377695]}},{"type":"Feature","properties":{"addr":"Court St & Nelson St","id":"3397","use":"2149"},"geometry":{"type":"Point","coordinates":[-73.99869893,40.6763947]}},{"type":"Feature","properties":{"addr":"Bergen St & Flatbush Ave","id":"3414","use":"2681"},"geometry":{"type":"Point","coordinates":[-73.97567331790923,40.680944723477296]}},{"type":"Feature","properties":{"addr":"E 102 St & Park Ave","id":"3363","use":"964"},"geometry":{"type":"Point","coordinates":[-73.95033068,40.7904828]}},{"type":"Feature","properties":{"addr":"Hancock St & Bedford Ave","id":"436","use":"1219"},"geometry":{"type":"Point","coordinates":[-73.95399026,40.68216564]}},{"type":"Feature","properties":{"addr":"Putnam Ave & Nostrand Ave","id":"3048","use":"1159"},"geometry":{"type":"Point","coordinates":[-73.94977,40.68402]}},{"type":"Feature","properties":{"addr":"Verona Pl & Fulton St","id":"3249","use":"1190"},"geometry":{"type":"Point","coordinates":[-73.9476791024208,40.6803560840434]}},{"type":"Feature","properties":{"addr":"Industry City, Building 1 Basement","id":"3245","use":"354"},"geometry":{"type":"Point","coordinates":[-74.00835871696472,40.65594917783975]}},{"type":"Feature","properties":{"addr":"E 68 St & Madison Ave","id":"3359","use":"1944"},"geometry":{"type":"Point","coordinates":[-73.96703464,40.7691572]}},{"type":"Feature","properties":{"addr":"Lorimer St & Broadway","id":"3069","use":"815"},"geometry":{"type":"Point","coordinates":[-73.94818595,40.70411791]}},{"type":"Feature","properties":{"addr":"Sigourney St & Columbia St","id":"3352","use":"534"},"geometry":{"type":"Point","coordinates":[-74.0087952464819,40.67267243410948]}},{"type":"Feature","properties":{"addr":"Union Ave & Wallabout St","id":"3065","use":"807"},"geometry":{"type":"Point","coordinates":[-73.95032283,40.70029511]}},{"type":"Feature","properties":{"addr":"Monroe St & Classon Ave","id":"289","use":"1320"},"geometry":{"type":"Point","coordinates":[-73.95881081,40.6845683]}},{"type":"Feature","properties":{"addr":"Monroe St & Tompkins Ave","id":"3241","use":"1259"},"geometry":{"type":"Point","coordinates":[-73.944694,40.686203]}},{"type":"Feature","properties":{"addr":"3 St & Hoyt St","id":"3381","use":"1351"},"geometry":{"type":"Point","coordinates":[-73.99364123,40.6777287]}},{"type":"Feature","properties":{"addr":"Henry St & Bay St","id":"3330","use":"302"},"geometry":{"type":"Point","coordinates":[-74.00494695,40.6725058]}},{"type":"Feature","properties":{"addr":"Coffey St & Conover St","id":"3348","use":"1144"},"geometry":{"type":"Point","coordinates":[-74.015665,40.677236]}},{"type":"Feature","properties":{"addr":"Humboldt St & Varet St","id":"3068","use":"1690"},"geometry":{"type":"Point","coordinates":[-73.940636,40.7031724]}},{"type":"Feature","properties":{"addr":"Sands St & Navy St","id":"2001","use":"1063"},"geometry":{"type":"Point","coordinates":[-73.979927,40.699773]}},{"type":"Feature","properties":{"addr":"Clinton St & Centre St","id":"3326","use":"379"},"geometry":{"type":"Point","coordinates":[-74.00194698,40.67434]}},{"type":"Feature","properties":{"addr":"Columbia St & W 9 St","id":"3394","use":"328"},"geometry":{"type":"Point","coordinates":[-74.00647134,40.6769993]}},{"type":"Feature","properties":{"addr":"Yankee Ferry Terminal","id":"3182","use":"2919"},"geometry":{"type":"Point","coordinates":[-74.016966,40.686931]}},{"type":"Feature","properties":{"addr":"Columbus Ave & W 103 St","id":"3302","use":"591"},"geometry":{"type":"Point","coordinates":[-73.9643412291,40.7969347]}},{"type":"Feature","properties":{"addr":"Bressler","id":"3239","use":"8"},"geometry":{"type":"Point","coordinates":[-74.01658773422241,40.64653836709648]}},{"type":"Feature","properties":{"addr":"Wolcott St & Dwight St","id":"3340","use":"423"},"geometry":{"type":"Point","coordinates":[-74.0100698,40.6753274]}},{"type":"Feature","properties":{"addr":"NYCBS Depot - STY - Garage 4","id":"3468","use":"66"},"geometry":{"type":"Point","coordinates":[-73.9747502,40.7303801]}},{"type":"Feature","properties":{"addr":"Morris Canal","id":"3267","use":"8"},"geometry":{"type":"Point","coordinates":[-74.03852552175522,40.7124188237569]}},{"type":"Feature","properties":{"addr":"Exchange Place","id":"3183","use":"2"},"geometry":{"type":"Point","coordinates":[-74.0334588,40.7162469]}},{"type":"Feature","properties":{"addr":"NYCBS Depot - PIT","id":"3250","use":"38"},"geometry":{"type":"Point","coordinates":[-73.98383796215057,40.71690978045965]}},{"type":"Feature","properties":{"addr":"GOW Tech Shop","id":"3040","use":"2"},"geometry":{"type":"Point","coordinates":[-73.99497985839844,40.66979964220026]}},{"type":"Feature","properties":{"addr":"NYCBS Depot BAL - DYR","id":"3240","use":"5"},"geometry":{"type":"Point","coordinates":[-73.99385869503021,40.759030082196055]}},{"type":"Feature","properties":{"addr":"E 59 St & Madison Ave","id":"3132","use":"3454"},"geometry":{"type":"Point","coordinates":[-73.97109243,40.76350532]}},{"type":"Feature","properties":{"addr":"Manila & 1st","id":"3273","use":"2"},"geometry":{"type":"Point","coordinates":[-74.04288411140442,40.721650724879986]}},{"type":"Feature","properties":{"addr":"India St & West St","id":"3469","use":"909"},"geometry":{"type":"Point","coordinates":[-73.95995020866394,40.73181401720966]}},{"type":"Feature","properties":{"addr":"Paulus Hook","id":"3184","use":"5"},"geometry":{"type":"Point","coordinates":[-74.0335519,40.7141454]}},{"type":"Feature","properties":{"addr":"W 84 St & Columbus Ave","id":"3170","use":"2857"},"geometry":{"type":"Point","coordinates":[-73.97283406,40.78499979]}},{"type":"Feature","properties":{"addr":"W 84 St & Broadway","id":"3177","use":"2811"},"geometry":{"type":"Point","coordinates":[-73.977112,40.7867947]}},{"type":"Feature","properties":{"addr":"Van Vorst Park","id":"3213","use":"2"},"geometry":{"type":"Point","coordinates":[-74.047726625,40.71848892]}},{"type":"Feature","properties":{"addr":"9 Ave & W 18 St","id":"434","use":"6801"},"geometry":{"type":"Point","coordinates":[-74.00366443,40.74317449]}},{"type":"Feature","properties":{"addr":"Grove St PATH","id":"3186","use":"3"},"geometry":{"type":"Point","coordinates":[-74.04311746358871,40.71958611647166]}},{"type":"Feature","properties":{"addr":"Essex Light Rail","id":"3214","use":"3"},"geometry":{"type":"Point","coordinates":[-74.0364857,40.7127742]}},{"type":"Feature","properties":{"addr":"E 82 St & East End Ave","id":"3369","use":"869"},"geometry":{"type":"Point","coordinates":[-73.94682079553604,40.772460677893974]}},{"type":"Feature","properties":{"addr":"8D OPS 01","id":"3036","use":"8"},"geometry":{"type":"Point","coordinates":[-73.89660179615021,40.88092055523877]}},{"type":"Feature","properties":{"addr":"Bike The Branches - Central Branch","id":"3253","use":"4"},"geometry":{"type":"Point","coordinates":[-73.96886587142944,40.67280641227746]}},{"type":"Feature","properties":{"addr":"Adventures NYC","id":"3257","use":"127"},"geometry":{"type":"Point","coordinates":[-73.97116988897324,40.77376867022874]}},{"type":"Feature","properties":{"addr":"City Hall","id":"3185","use":"1"},"geometry":{"type":"Point","coordinates":[-74.043845,40.7177325]}},{"type":"Feature","properties":{"addr":"Newport PATH","id":"3202","use":"1"},"geometry":{"type":"Point","coordinates":[-74.0337589,40.7272235]}},{"type":"Feature","properties":{"addr":"Gowanus Tech Station","id":"3470","use":"10"},